name,address,category,lat,lon,query
"Белинвестбанк, банкомат","Минский район, Щомыслицкий сельсовет, Меньковский тракт, 43, подъезд 1, этаж 2",,53.851158,27.423803,банкомат
Альфа-Банк,"Минский район, Щомыслицкий сельсовет, 32, корп. 4",,53.850481,27.433535,банкомат
Сбер Банк,"Минский район, Щомыслицкий сельсовет, 107",,53.846459,27.426549,банкомат
Приорбанк,"ул. Громова, 20, универсам ""Соседи""",,53.853607,27.444455,банкомат
Беларусбанк,"ул. Космонавтов, 28, Санта, этаж 1",,53.850013,27.456025,банкомат
ATM Белинвестбанк,"Слободская ул., 47, Санта, этаж 1",,53.853217,27.435376,банкомат
Белагропромбанк,"Минский район, Щомыслицкий сельсовет, 32, корп. 4, этаж 2",,53.84894,27.43443,банкомат
Банк Дабрабыт,"ул. Сергея Есенина, 30, этаж 1",,53.851649,27.456034,банкомат
"Белинвестбанк, банкомат","просп. Дзержинского, 126, Гипермаркет ""ProStore"", этаж 1",,53.846846,27.471454,банкомат
Беларусбанк,"Слободская ул., 15, Лицевая сторона отделения, отдел №527/447",,53.860735,27.429769,банкомат
Белинвестбанк,"ул. Космонавтов, 28, этаж 1",,53.850147,27.456044,банкомат
Альфа-Банк,"просп. Дзержинского, 119",,53.851256,27.47677,банкомат
Беларусбанк,"просп. Дзержинского, 131, Лицевая сторона отделения, отдел №527/452",,53.844608,27.473832,банкомат
Альфа-Банк,"просп. Дзержинского, 126",,53.846846,27.471711,банкомат
Беларусбанк,"ул. Сергея Есенина, 16, отдел 500/287, этаж 1",,53.849927,27.461935,банкомат
БСБ Банк,"ул. Космонавтов, 28, Виталюр",,53.850081,27.456079,банкомат
МТБАНК,"просп. Дзержинского, 122, этаж 1",,53.850149,27.473709,банкомат
Белгазпромбанк,"просп. Дзержинского, 126, этаж 1",,53.847052,27.471501,банкомат
Беларусбанк,"просп. Дзержинского, 119, этаж 1",,53.851866,27.476932,банкомат
БСБ Банк,"Озерцо, Менкоўскі тракт, 2, подъезд 1",,53.853235,27.421177,банкомат
Белагропромбанк,"ул. Рафиева, 88А, Центр банковских услуг 715/24",,53.859879,27.43682,банкомат
Белинвестбанк,"ул. Сергея Есенина, 76, этаж 1",,53.861559,27.444456,банкомат
Приорбанк,"просп. Дзержинского, 104, ТРЦ Титан",,53.862062,27.480051,банкомат
Банк ВТБ,"просп. Дзержинского, 119, этаж 1",,53.849765,27.47622,банкомат
Сбер Банк,"Минск, просп. Дзержинского, 119, офис №709 на Дзержинского",,53.850218,27.476155,банкомат
Беларусбанк,"Минский район, Щомыслицкий сельсовет, 32, корп. 4, ДК Диамант сити рядом с, этаж 2, магазин ГИППО",,53.848806,27.43451,банкомат
Сбер Банк,"Минск, просп. Дзержинского, 126, Гипермаркет ""ProStore""",,53.850315,27.475273,банкомат
Банк Решение,"Озерцо, Менкоўскі тракт, 2, этаж 1",,53.854313,27.420762,банкомат
Белагропромбанк,"Минск, ул. Наполеона Орды, 6",,53.842656,27.477075,банкомат
Приорбанк,"Минск, просп. Дзержинского, 126",,53.846826,27.471749,банкомат
Альфа-Банк,"Минск, просп. Дзержинского, 119",,53.850372,27.476355,банкомат
Банкомат БСБ банк,"Минский район, Щомыслицкий сельсовет, Меньковский тракт, 2А",,53.853774,27.426221,банкомат
Беларусбанк,"Минск, ул. Яна Чечота, 11, этаж 1",,53.849274,27.481443,банкомат
Технобанк,"Минск, ул. Сергея Есенина, 27",,53.851216,27.452491,банкомат
Беларусбанк,"Минск, просп. Газеты Звязда, 55, отдел 500/301",,53.858741,27.463393,банкомат
Белинвестбанк,"Минск, ул. Корженевского, 2, Курасовщинский рынок",,53.846596,27.49569,банкомат
Приорбанк,"Минск, просп. Дзержинского, 122, этаж 1",,53.851273,27.474421,банкомат
Белагропромбанк,"Минский район, Щомыслицкий сельсовет, 6А, Центр банковских услуг №565/84",,53.838486,27.454491,банкомат
МТБАНК,"Минск, просп. Дзержинского, 126, ТЦ Простор, этаж 1",,53.84733,27.470802,банкомат
Белагропромбанк,"Минский район, Щомыслицкий сельсовет, 54/2, ОАО Кондитерская фабрика ""Слодыч""",,53.839803,27.453845,банкомат
ATM Белинвестбанк,"Минск, ул. Академика Курчатова, 5, Филиал БГУ ""Щомыслица""",,53.838131,27.475749,банкомат
БелВЭБ,"ул. Космонавтов, 29, Минск",,53.849304,27.456807,банкомат
Белинвестбанк,"Минск, Каролинская ул., 5, этаж 1",,53.850281,27.4843,банкомат
БелВЭБ,"Минск, просп. Дзержинского, 91, этаж 1",,53.859505,27.481844,банкомат
БелВЭБ,"Минск, просп. Дзержинского, 122, ОАО ""Банк БелВЭБ"", этаж 1",,53.85053,27.474081,банкомат
Белагропромбанк,"Минский район, Щомыслицкий сельсовет, 61А, Центр банковских услуг №552/54",,53.847591,27.424838,банкомат
Белагропромбанк,"Минский район, Щомыслицкий сельсовет, 27, Административное здание ООО ""Паралиминигрупп""",,53.845971,27.418388,банкомат
БСБ Банк,"Минск, просп. Дзержинского, 106",,53.858337,27.475667,банкомат
Белагропромбанк,"Минский район, Щомыслицкий сельсовет, 1, ТЦ ""Minsk City Mall"", этаж 1-й",,53.848255,27.42014,банкомат
Белагропромбанк,"Минский район, Щомыслицкий сельсовет, 31, Центр банковских услуг №520",,53.839282,27.457546,банкомат
Альфа-Банк,"Минск, просп. Дзержинского, 106, этаж 1",,53.858191,27.476714,банкомат
Белагропромбанк,"Минский район, Щомыслицкий сельсовет, 17/3, Центр банковских услуг №560",,53.837949,27.453009,банкомат
Белагропромбанк,"Минский район, Щомыслицкий сельсовет, 54, Центр банковских услуг №549",,53.839484,27.454024,банкомат
Белагропромбанк,"Минский район, Щомыслицкий сельсовет, 35-114А, Центр банковских услуг №510/5",,53.851447,27.42712,банкомат
Белагропромбанк,"Минский район, Щомыслицкий сельсовет, 81, магазин ""Ами мебель""",,53.839006,27.455291,банкомат
Белагропромбанк,"Минский район, Щомыслицкий сельсовет, 1, ""Торговый дом ""Стройпродукт"", магазин ООО",,53.84562,27.419295,банкомат
Белагропромбанк,"Минский район, Щомыслицкий сельсовет, 30Б, магазин ""Строитель""",,53.850242,27.421838,банкомат
Белагропромбанк,"Минский район, Щомыслицкий сельсовет, 55, магазин ""Копеечка""",,53.839686,27.456602,банкомат
Белагропромбанк,"Минский район, Щомыслицкий сельсовет, 11, Центр банковских услуг №532/35",,53.850789,27.427425,банкомат
Белагропромбанк,"Минский район, Щомыслицкий сельсовет, 101, ТЦ ""Материк""",,53.85089,27.419565,банкомат
Белагропромбанк,"Минский район, Щомыслицкий сельсовет, 32, Центр банковских услуг №539",,53.851601,27.432456,банкомат
Белагропромбанк,"Минский район, Щомыслицкий сельсовет, 12, магазин ""Евроопт""",,53.85141,27.427695,банкомат
БелВЭБ,"Минск, просп. Дзержинского, 126, ТЦ ""ProStore""",,53.846849,27.471776,банкомат
Приорбанк,"Минский район, Щомыслицкий сельсовет, 32, корп. 4, ТЦ DiaMond city",,53.849615,27.433588,банкомат
Белагропромбанк,"Минский район, Щомыслицкий сельсовет, Щомыслица, Брестская улица, 75, ""Живинка"", магазин №26 ОАО",,53.82552,27.447458,банкомат
Белгазпромбанк,"Минск, просп. Дзержинского, 91, этаж 1",,53.859273,27.481858,банкомат
Белагропромбанк,"Минский район, Щомыслицкий сельсовет, 14, корп. 1, №2, магазин ""ДорОРС""",,53.853705,27.426051,банкомат
Белагропромбанк,"Минский район, Щомыслицкий сельсовет, 28, Здание универмага",,53.82645,27.436166,банкомат
Банк РРБ,"Минск, просп. Дзержинского, 106, ТЦ Магнит",,53.85809,27.47666,банкомат
Белагропромбанк,"Минский район, Щомыслицкий сельсовет, 79, Центр банковских услуг №567/80",,53.850093,27.412226,банкомат
Беларусбанк,"Минск, ул. Наполеона Орды, 37, этаж 1",,53.847385,27.488094,банкомат
Технобанк,"Минск, просп. Газеты Звязда, 53, этаж 1",,53.859515,27.462706,банкомат
Белагропромбанк,"Минский район, Щомыслицкий сельсовет, 62, Центр банковских услуг №514",,53.85039,27.411696,банкомат
"Белинвестбанк, банкомат","Минск, просп. Газеты Звязда, 53, этаж 1",,53.859345,27.462385,банкомат
Белагропромбанк,"Минский район, Щомыслицкий сельсовет, Щомыслица, Здание центра, 17 километр",,53.822804,27.452255,банкомат
Белагропромбанк,"Минский район, Щомыслицкий сельсовет, 115, Здание ЭКТБ",,53.847373,27.415478,банкомат
Белагропромбанк,"Минский район, Щомыслицкий сельсовет, 7, Здание Управления Следственного комитета РБ по г.Минску",,53.850629,27.41819,банкомат
Белагропромбанк,"Минский район, Щомыслицкий сельсовет, 60/4",,53.850104,27.410887,банкомат
Белагропромбанк,"Минский район, Щомыслицкий сельсовет, 9, Центр банковских услуг №526",,53.820598,27.444951,банкомат
Белагропромбанк,"Минск, ул. Громова, 32/4, ТЦ ""ДиаМант сити""",,53.855749,27.447098,банкомат
Белинвестбанк,"Минск, ул. Космонавтов, 5А, этаж 1",,53.85341,27.466925,банкомат
Белагропромбанк,"Минский район, Щомыслицкий сельсовет, 14, ОАО ""Слуцкий сыродельный комбинат""",,53.858644,27.421604,банкомат
Белагропромбанк,"Минский район, Щомыслицкий сельсовет, 46, Заводоуправление Минского Мясокомбината",,53.851793,27.406449,банкомат
МТБанк,"Минск, просп. Дзержинского, 122, Помещение РКЦ №65",,53.850203,27.473729,банкомат
Белагропромбанк,"д. Богатырёво, Садовая ул., 13, Центр банковских услуг №519",,53.84536,27.399586,банкомат
Банк Решение,"Озерцо, Менкоўскі тракт, 2",,53.855034,27.420619,банкомат
Белагропромбанк,"д. Богатырёво, Минская ул., 4, магазин ""Санта""",,53.845057,27.395203,банкомат
Приорбанк,"Минск, ул. Громова, 20, универсам Соседи",,53.853774,27.444547,банкомат
Белагропромбанк,"Озерцо, ул. Строителей, 12, Универсам",,53.84205,27.396981,банкомат
Приорбанк,"Минск, просп. Дзержинского, 91, этаж 1",,53.859417,27.481847,банкомат
"БСБ банк, банкомат","Минск, ул. Космонавтов, 28",,53.850083,27.456087,банкомат
МТБАНК,"Минск, просп. Дзержинского, 91, этаж 1",,53.859379,27.481949,банкомат
БелВЭБ,"Минск, ул. Космонавтов, 29",,53.849333,27.457213,банкомат
"Белинвестбанк, банкомат","Минск, просп. Газеты Звязда, 53, этаж 1",,53.859134,27.46256,банкомат
Белагропромбанк,"Озерцо, ул. Дзержинского, 8, Центр банковских услуг №531",,53.83983,27.397107,банкомат
Приорбанк,"Минск, ул. Громова, 20, универсам ""Соседи""",,53.8535,27.4444,банкомат
Приорбанк,"Минск, ул. Громова, 20, универсам ""Соседи""",,53.8538,27.4445,банкомат
Приорбанк,"Минск, просп. Дзержинского, 126, Гипермаркет Простор",,53.847363,27.470895,банкомат
Белагропромбанк,"Озерцо, Молодёжная ул., 1, Центр банковских услуг №508/13",,53.841285,27.387199,банкомат
Белагропромбанк,"Минский район, Щомыслицкий сельсовет, 67-4, ТЦ ""Спутник""",,53.847735,27.391385,банкомат
Белагропромбанк,"Минский район, Щомыслицкий сельсовет, 20, Центр банковских услуг №567/81",,53.84782,27.390486,банкомат
Белагропромбанк,"Минский район, Щомыслицкий сельсовет, 134, ТЦ ""Першы Нацыянальны гандлевы дом""",,53.822804,27.401383,банкомат
Белагропромбанк,"Минский район, Щомыслицкий сельсовет, 118/А, Центр банковских услуг №510/4",,53.857778,27.399092,банкомат
Белагропромбанк,"Минский район, Щомыслицкий сельсовет, 75, Центр банковских услуг №563/78",,53.848085,27.388842,банкомат
Белагропромбанк,"Минский район, Щомыслицкий сельсовет, 43, Административное здание ГКСЭ РБ",,53.849248,27.39169,банкомат
Белагропромбанк,"Минский район, Щомыслицкий сельсовет, 65, магазин ""Соседи""",,53.84911,27.389022,банкомат
БелВЭБ,"Минск, просп. Дзержинского, 126",,53.847363,27.470895,банкомат
Белагропромбанк,"Минский район, Щомыслицкий сельсовет, 48, Продовольственный, магазин ""Перекресток""",,53.847851,27.389723,банкомат
Приорбанк,"Минск, просп. Дзержинского, 122, УРМ 101/12 Приорбанк ОАО",,53.851463,27.474407,банкомат
Альфа-Банк,"Минск, просп. Дзержинского, 119, Банкомат в отделении Малиновка",,53.850293,27.476183,банкомат
Белагропромбанк,"Минский район, Щомыслицкий сельсовет, 68А, Центр банковских услуг №521",,53.848059,27.386444,банкомат
Белагропромбанк,"Минск, просп. Дзержинского, 106, ТЦ ""Магнит""",,53.858584,27.476686,банкомат
БелВЭБ,"Минск, просп. Дзержинского, 122",,53.851463,27.47438,банкомат
Приорбанк,"Минск, просп. Дзержинского, 122, ОАО ""Приорбанк""",,53.8515,27.4744,банкомат
БелВЭБ,"Минск, просп. Дзержинского, 122",,53.851428,27.474487,банкомат
Приорбанк,"Минск, просп. Дзержинского, 91, ТЦ Алми",,53.859382,27.482411,банкомат
Альфа-Банк,"Минск, просп. Дзержинского, 119, Банкомат в отделении Малиновка",,53.850293,27.476231,банкомат
Альфа-Банк,"Минск, просп. Дзержинского, 119, Банкомат в отделении Малиновка",,53.850274,27.476199,банкомат
БелВЭБ,"Минск, просп. Дзержинского, 126",,53.846915,27.471698,банкомат
Cash-in Альфа-банк,"Минск, просп. Дзержинского, 119",,53.851084,27.476701,банкомат
Belbohemia,"Минский район, Щомыслицкий сельсовет, 16",Пункт выдачи,53.859486,27.400081,банкомат
Банк Дабрабыт,"ул. Сергея Есенина, 30, этаж 1",Банк,53.851677,27.456021,отделение банка
Белагропромбанк,"Минский район, Щомыслицкий сельсовет, 32, корп. 4",Банк,53.84887,27.434317,отделение банка
Беларусбанк,"Слободская ул., 15, отдел №527/447",Банк,53.860634,27.429907,отделение банка
Беларусбанк,"ул. Сергея Есенина, 16, этаж 1",Банк,53.849911,27.462109,отделение банка
Белагропромбанк,"ул. Рафиева, 88А",Банк,53.859876,27.436793,отделение банка
Белагропромбанк,"ул. Наполеона Орды, 6",Банк,53.842732,27.476689,отделение банка
БСБ Банк,"ул. Космонавтов, 29, этаж 1",Банк,53.849486,27.457067,отделение банка
МТБАНК,"просп. Дзержинского, 122, этаж 1",Банк,53.850139,27.473757,отделение банка
Беларусбанк,"просп. Дзержинского, 131, отдел 527/452, этаж 1",Банк,53.844506,27.473935,отделение банка
Белинвестбанк,"ул. Яна Чечота, 11, этаж 1",Банк,53.849399,27.480533,отделение банка
БСБ Банк,"Озерцо, Менкоўскі тракт, 2, подъезд 3",Банк,53.854811,27.421195,отделение банка
Беларусбанк,"Слободская ул., 135, отдел 527/448",Банк,53.845248,27.457205,отделение банка
Приорбанк,"просп. Дзержинского, 122",Банк,53.851335,27.474369,отделение банка
Сбер Банк,"просп. Дзержинского, 119",Банк,53.850197,27.476187,отделение банка
Белорусский народный банк,"просп. Дзержинского, 104Б, этаж 1",Банк,53.860164,27.4789,отделение банка
Банк Дабрабыт,"просп. Дзержинского, 106",Банк,53.858095,27.476629,отделение банка
Беларусбанк,"просп. Дзержинского, 119, отдел №527/454",Банк,53.851472,27.476661,отделение банка
Технобанк,"ул. Громова, 20, универсам Соседи",Обмен валюты,53.85345,27.444229,отделение банка
Беларусбанк,"просп. Газеты Звязда, 55, этаж 1",Банк,53.858659,27.463342,отделение банка
Отделение Альфа-банк,"просп. Дзержинского, 119",Банк,53.850388,27.476243,отделение банка
БСБ Банк,"Минский район, Сеницкий сельсовет, 84",,53.835552,27.504189,банкомат
МТБАНК,"ул. Корженевского, 26",,53.842791,27.528858,банкомат
"Белинвестбанк, банкомат","ул. Лейтенанта Кижеватова, 72, корп. 1",,53.846432,27.534636,банкомат
Беларусбанк,"ул. Корженевского, 16, Завод Транзистор",,53.841394,27.520842,банкомат
Сбер Банк,"ул. Корженевского, 26, ТЦ ""Корона-Курасовщина"", этаж 1",,53.842706,27.529821,банкомат
Беларусбанк,"ул. Корженевского, 10, корп. 1, этаж 1",,53.844852,27.502447,банкомат
Беларусбанк,"агрогородок Сеница, Набережная ул., 57",,53.82225,27.518489,банкомат
Беларусбанк,"ул. Казинца, 86, корп. 1, Проматомнадзор, этаж 1",,53.848279,27.50816,банкомат
Белинвестбанк,"ул. Корженевского, 2, Курасовщинский рынок",,53.846596,27.49569,банкомат
Альфа-Банк,"ул. Казинца, 52А, корп. 1",,53.855569,27.511157,банкомат
Белагропромбанк,"агрогородок Сеница, Набережная ул., 71, Центр банковских услуг №510/55",,53.822488,27.518555,банкомат
Беларусбанк,"ул. Лейтенанта Кижеватова, 7, корп. 2",,53.851756,27.538064,банкомат
Беларусбанк,"ул. Корженевского, 26, этаж 1",,53.842739,27.529339,банкомат
Беларусбанк,"ул. Лейтенанта Кижеватова, 58, корп. 9",,53.852086,27.536171,банкомат
Беларусбанк,"ул. Лейтенанта Кижеватова, 80, корп. 1, этаж 1",,53.844257,27.533155,банкомат
Белагропромбанк,"ул. Корженевского, 26, этаж 1",,53.84274,27.529947,банкомат
БСБ Банк,"ул. Корженевского, 26",,53.842679,27.529947,банкомат
Беларусбанк,"ул. Асаналиева, 40Б, Слева от входа, отдел №527/209",,53.850471,27.545357,банкомат
Беларусбанк,"пер. Асаналиева, 5, Белорусский государственный медицинский университет",,53.838194,27.539829,банкомат
Белагропромбанк,"ул. Казинца, 46/15",,53.859911,27.51763,банкомат
Технобанк,"агрогородок Сеница, Зелёная ул., 1, корп. 5",,53.822132,27.530674,банкомат
Беларусбанк,"ул. Корженевского, 10к1, этаж 1",Банк,53.844824,27.502593,отделение банка
Беларусбанк,"ул. Лейтенанта Кижеватова, 80, корп. 1, этаж 1",Банк,53.844292,27.533139,отделение банка
Беларусбанк,"посёлок Юбилейный, Коммунальная ул., 4, отдел №500/5088",Банк,53.818526,27.517302,отделение банка
Белагропромбанк,"агрогородок Сеница, Набережная ул., 71",Банк,53.822543,27.518793,отделение банка
Беларусбанк,"Брестская ул., 77А, отдел №527/356",Банк,53.855331,27.521353,отделение банка
Беларусбанк,"ул. Асаналиева, 40Б, отдел №527/209",Банк,53.850481,27.545418,отделение банка
Альфа-Банк,"ул. Уборевича, 176",,53.835224,27.605281,банкомат
Беларусбанк,"ул. Голодеда, 21, корп. 1",,53.839478,27.635831,банкомат
Беларусбанк,"ул. Уборевича, 176, этаж 1",,53.835159,27.606646,банкомат
Беларусбанк,"Игуменский тракт, 42, отдел 511/383",,53.836506,27.573827,банкомат
Альфа-Банк,"просп. Рокоссовского, 145Б, этаж 1",,53.856079,27.612261,банкомат
Белинвестбанк,"Игуменский тракт, 11, этаж 1",,53.846775,27.569594,банкомат
Белинвестбанк,"просп. Рокоссовского, 148, магазин ""Надежда""",,53.854885,27.607889,банкомат
Белинвестбанк,"ул. Уборевича, 176, этаж 1",,53.835223,27.605308,банкомат
Беларусбанк,"просп. Рокоссовского, 114, отдел 511/198",,53.858214,27.607884,банкомат
Альфа-Банк,"Игуменский тракт, 20",Банк,53.843822,27.56969,банкомат
Беларусбанк,"ул. Иосифа Гошкевича, 3, этаж 1",,53.840325,27.569407,банкомат
Беларусбанк,"просп. Рокоссовского, 145, Супермаркет Домашний",,53.854637,27.613071,банкомат
БСБ Банк,"ул. Иосифа Гошкевича, 3, этаж 1",,53.840106,27.569272,банкомат
Белинвестбанк,"ул. Иосифа Гошкевича, 3, этаж 1",,53.840369,27.569205,банкомат
Приорбанк,"ул. Голодеда, 15, этаж 2",,53.839345,27.640719,банкомат
Белагропромбанк,"Ташкентский пр., 5",,53.837885,27.628197,банкомат
Белинвестбанк,"ул. Голодеда, 34А, этаж 1",,53.84034,27.636967,банкомат
Белагропромбанк,"Ташкентская ул., 19, МКРСК ""Чижовка-Арена, помещение 8",,53.844565,27.629251,банкомат
Беларусбанк,"Игуменский тракт, 20, Справа от входа, отдел №511/401",,53.844128,27.569337,банкомат
Белагропромбанк,"ул. Уборевича, 176, ТЦ Грин, этаж 1",,53.835094,27.605298,банкомат
Беларусбанк,"ул. Плеханова, 72, отдел 511/273",,53.859105,27.591844,банкомат
Беларусбанк,"ул. Иосифа Гошкевича, 3, этаж 1",,53.840238,27.569409,банкомат
Белагропромбанк,"Ташкентская ул., 15, этаж 1",,53.840542,27.629413,банкомат
Приорбанк,"Игуменский тракт, 30, этаж 1",,53.840613,27.573083,банкомат
БелВЭБ,"ул. Малинина, 35А",,53.847639,27.604965,банкомат
Беларусбанк,"ул. Станислава Монюшко, 14, этаж 1",,53.842925,27.577089,банкомат
МТБАНК,"ул. Янки Лучины, 7, Рядом с РКЦ 35, БЦ Стратег",,53.839673,27.571252,банкомат
Сбер Банк,"ул. Уборевича, 176, этаж 1",,53.835219,27.605303,банкомат
Беларусбанк,"ул. Маяковского, 176, корп. 13",,53.859455,27.571401,банкомат
БелВЭБ,"ул. Янки Лучины, 7, этаж 1",,53.839803,27.571308,банкомат
Беларусбанк,"ул. Кабушкина, 94, корп. 2, ОАО Заводской райпищеторг",,53.856163,27.633109,банкомат
Приорбанк,"просп. Рокоссовского, 119, этаж 1",,53.857138,27.613599,банкомат
Беларусбанк,"ул. Голодеда, 31, этаж 1",,53.839402,27.631953,банкомат
Беларусбанк,"ул. Уборевича, 73, этаж 1",,53.838616,27.655225,банкомат
БелВЭБ,"д. Колядичи, 147",,53.829075,27.572126,банкомат
БелВЭБ,"Игуменский тракт, 30, этаж 1",,53.840185,27.572951,банкомат
Беларусбанк,"Игуменский тракт, 11, этаж 1",,53.846816,27.569608,банкомат
Белинвестбанк,"ул. Маяковского, 184",,53.855131,27.568126,банкомат
Банк РРБ,"ул. Иосифа Гошкевича, 3, этаж 1",Обмен валюты,53.840459,27.569365,банкомат
"Беларусбанк, банкомат","Социалистическая ул., 2/152",,53.858052,27.641583,банкомат
Технобанк,"ул. Крупской, 6, корп. 1, этаж 1",,53.858981,27.627125,банкомат
Белинвестбанк,"ул. Крупской, 6, корп. 1, этаж 1",,53.858916,27.627134,банкомат
БелВЭБ,"ул. Малинина, 35А",,53.84766,27.604956,банкомат
Беларусбанк,"ул. Шишкина, 26, ГП ЖЭУ № 6 Заводского района г. Минска Справа от входа",,53.858695,27.633864,банкомат
Беларусбанк,"ул. Машиностроителей, 18, ООО Завод автомобильных прицепов и кузовов МАЗ-Купава",,53.850468,27.655683,банкомат
Белагропромбанк,"Минский район, Сеницкий сельсовет, 14, ОАО ""Слуцкий сыродельный комбинат""",,53.827582,27.579124,банкомат
Белагропромбанк,"Минский район, Сеницкий сельсовет, 154, Центр банковских услуг №564",,53.827874,27.572782,банкомат
Белинвестбанк,"ул. Уборевича, 75, этаж 1",,53.836776,27.653128,банкомат
Белинвестбанк,"ул. Асаналиева, 40",,53.851183,27.54607,банкомат
Белагропромбанк,"Минск, Игуменский тракт, 16",,53.845443,27.567244,банкомат
Сбер Банк,"Минск, Игуменский тракт, 30, этаж 1",,53.840382,27.572449,банкомат
МТБанк,"Минск, ул. Янки Лучины, 7",,53.839675,27.571255,банкомат
Белагропромбанк,"Минск, Игуменский тракт, 30, этаж 1",,53.840468,27.572919,банкомат
Альфа-Банк,"Минск, ул. Уборевича, 176, ТЦ Green",,53.835584,27.606082,банкомат
Приорбанк,"Минск, Игуменский тракт, 30, УРМ 100/11 Приорбанк ОАО Гипермаркет Гиппо",,53.840382,27.572449,банкомат
Технобанк,"Минск, ул. Асаналиева, 44, этаж 1",,53.851467,27.544178,банкомат
Приорбанк,"Минск, просп. Рокоссовского, 119, Супермаркет Алми",,53.857815,27.613215,банкомат
Белагропромбанк,"Минск, Игуменский тракт, 16, этаж 1",,53.84539,27.567318,банкомат
БелВЭБ,"Минск, Игуменский тракт, 30",,53.840382,27.572449,банкомат
Технобанк,"Минск, ул. Крупской, 6",,53.859185,27.626761,банкомат
Беларусбанк,"Минск, ул. Асаналиева, 40Б",,53.85051,27.545373,банкомат
Белагропромбанк,"ул. Уборевича, 176, этаж 1",Банк,53.835072,27.60658,отделение банка
Беларусбанк,"Игуменский тракт, 42, отдел 511/383",Банк,53.836594,27.573802,отделение банка
Беларусбанк,"ул. Голодеда, 61, отдел №511/183",Банк,53.839512,27.618678,отделение банка
Белагропромбанк,"ул. Уборевича, 176, этаж 1",Обмен валюты,53.835161,27.605375,отделение банка
Беларусбанк,"просп. Рокоссовского, 114",Банк,53.858043,27.608007,отделение банка
Беларусбанк,"ул. Голодеда, 31, отдел №511/189",Банк,53.839449,27.631924,отделение банка
Приорбанк,"Игуменский тракт, 30, этаж 1",Банк,53.840221,27.573013,отделение банка
Беларусбанк,"ул. Плеханова, 72, отдел 511/273",Банк,53.859168,27.591969,отделение банка
Банк РРБ,"ул. Иосифа Гошкевича, 3, рабочее, место 2",Банк,53.840233,27.569415,отделение банка
БелВЭБ,"ул. Янки Лучины, 7, этаж 1",Банк,53.839807,27.571139,отделение банка
МТБАНК,"ул. Янки Лучины, 7, Обслуживание физических лиц br, БЦ Стратег",Банк,53.839674,27.571307,отделение банка
Беларусбанк,"ул. Павла Шпилевского, 54, отдел 511/406",Банк,53.847128,27.563538,отделение банка
Беларусбанк,"Игуменский тракт, 20, отдел 511/401",Банк,53.8441,27.569365,отделение банка
МТБАНК,"Промышленный пер., 12А",,53.838602,27.683687,банкомат
Беларусбанк,"ул. Алеся Бачило, 32, отдел 511/415",,53.843357,27.696764,банкомат
Белагропромбанк,"ул. Селицкого, 65, магазин "" Соседи""",,53.837,27.701661,банкомат
Сбер Банк,"Минск, Партизанский проспект, этаж -1",,53.861596,27.674647,банкомат
БСБ Банк,"ул. Селицкого, 105",,53.843287,27.705679,банкомат
Беларусбанк,"Партизанский просп., 182, этаж 1",,53.849415,27.69868,банкомат
"Белинвестбанк, банкоматы","д. Большой Тростенец, Молодёжная ул., 1",,53.857951,27.689454,банкомат
Белинвестбанк,"Партизанский просп., 149В, этаж -1",,53.862462,27.673259,банкомат
Беларусбанк,"Партизанский просп., 150, корп. 22",,53.858808,27.671624,банкомат
Белагропромбанк,"Партизанский просп., 150А, Центр банковских услуг №564",,53.859807,27.673833,банкомат
Банк ВТБ,"Партизанский просп., 150А, этаж 1",,53.859807,27.673833,банкомат
БСБ Банк,"Партизанский просп., 150А",,53.860246,27.674581,банкомат
Сбер Банк,"Партизанский просп., 150А, этаж 1",,53.859807,27.673833,банкомат
Приорбанк,"Партизанский просп., 150А, этаж 1",,53.860114,27.674038,банкомат
МТБАНК,"Партизанский просп., 150А",,53.859542,27.674013,банкомат
Белгазпромбанк,"Партизанский просп., 150А, этаж 2",,53.860182,27.674089,банкомат
Беларусбанк,"ул. Алеся Бачило, 7, магазин Евроопт",,53.840834,27.702273,банкомат
Приорбанк,"Партизанский просп., 182, этаж 1",,53.849407,27.698731,банкомат
Сбер Банк,"Партизанский просп., 84",,53.871076,27.644248,банкомат
Сбер Банк,"Партизанский просп., 147, станция метро ""Могилевская"" В1",,53.86491,27.666341,банкомат
Беларусбанк,"ул. Алеся Бачило, 32, отдел 511/415",Банк,53.843386,27.696738,отделение банка
МТБАНК,"Партизанский просп., 150А",Банк,53.859604,27.673991,отделение банка
Сбер Банк,"Партизанский просп., 150А, этаж 1",Банк,53.859377,27.673772,отделение банка
Беларусбанк,"ул. Селицкого, 71, отдел №511/420",Банк,53.837756,27.703125,отделение банка
Белгазпромбанк,"Партизанский просп., 150А, этаж 2",Банк,53.860145,27.674023,отделение банка
Беларусбанк,"ул. Уборевича, 72, отдел №511/178",Банк,53.838713,27.650078,отделение банка
Беларусбанк,"ул. Уборевича, 26, этаж 1",Банк,53.845798,27.643231,отделение банка
Приорбанк,"Партизанский просп., 150А",Банк,53.859307,27.675117,отделение банка
БелВЭБ,"Партизанский просп., 150А",Банк,53.859608,27.673991,отделение банка
Банк ВТБ,"Партизанский просп., 150А, этаж 1",Банк,53.859488,27.674865,отделение банка
Приорбанк,"Партизанский просп., 150А, этаж 1",Банк,53.860094,27.673971,отделение банка
МТБАНК,"Партизанский просп., 150А",Банк,53.859791,27.673885,отделение банка
Белгазпромбанк,"ул. Шаранговича, 51",,53.881699,27.441299,банкомат
Беларусбанк,"ул. Маршала Лосика, 31, этаж -1",,53.87358,27.442094,банкомат
Беларусбанк,"Сухаревская ул., 8, отдел №510/307",,53.884419,27.438722,банкомат
Белинвестбанк,"Сухаревская ул., 19",,53.886018,27.435205,банкомат
Сбер Банк,"ул. Шаранговича, 25",,53.883661,27.448681,банкомат
Альфа-Банк,"ул. Шаранговича, 25, этаж 1",,53.883541,27.448563,банкомат
Приорбанк,"Сухаревская ул., 31, гипермаркет ""ГИППО""",,53.8872,27.422809,банкомат
Альфа-Банк,"ул. Лобанка, 94, этаж 1",,53.886895,27.428247,банкомат
Беларусбанк,"ул. Алибегова, 13, корп. 1, этаж 2",,53.870886,27.474118,банкомат
"Белинвестбанк, банкомат","ул. Шаранговича, 25, этаж 1",,53.883457,27.44831,банкомат
Белагропромбанк,"ул. Шаранговича, 25, Гипермаркет ""Магнит""",,53.883684,27.4483,банкомат
Белагропромбанк,"ул. Лобанка, 79, этаж 1",,53.888865,27.428817,банкомат
БСБ Банк,"ул. Шаранговича, 25",,53.883684,27.448346,банкомат
Белинвестбанк,"ул. Лобанка, 94, этаж 1",,53.886885,27.428157,банкомат
Беларусбанк,"ул. Якубовского, 52, УП Светоприбор на 1-ом этаже в холле",,53.893333,27.451389,банкомат
МТБАНК,"ул. Лобанка, 94, этаж 1",,53.886647,27.428314,банкомат
Альфа-Банк,"ул. Максима Горецкого, 2, корп. 1, Гипермаркет Гиппо",,53.875797,27.465788,банкомат
Беларусбанк,"ул. Лобанка, 94, этаж 1",,53.886749,27.428027,банкомат
Беларусбанк,"ул. Одинцова, 113, этаж 1",,53.900925,27.427505,банкомат
Белинвестбанк,"ул. Мазурова, 24, этаж 1",,53.89649,27.422522,банкомат
"Атм Белинвестбанк, Банкомат № 129","Минск, ул. Монтажников, 2, этаж 1",,53.873225,27.416982,банкомат
Белагропромбанк,"ул. Одинцова, 20, Центр банковских услуг №567/81",,53.900511,27.446669,банкомат
Беларусбанк,"ул. Одинцова, 9, Слева от входа, отдел №510/416",,53.898241,27.4565,банкомат
Сбер Банк,"Минск, ул. Монтажников, 2, этаж 1",,53.873662,27.417065,банкомат
Белагропромбанк,"ул. Голубева, 24А, Супермаркет ""Соседи""",,53.867706,27.465395,банкомат
Беларусбанк,"Сухаревская ул., 62",,53.888319,27.422432,банкомат
Беларусбанк,"Сухаревская ул., 62, отдел 510/402",Банк,53.88821,27.422769,банкомат
БелВЭБ,"просп. Любимова, 41",,53.863874,27.452495,банкомат
ATM Белинвестбанк,"ул. Гурского, 38, Мингорсвет",,53.881229,27.478917,банкомат
БСБ Банк,"Сухаревская ул., 33, БОК Сухарево",,53.887112,27.421671,банкомат
Сбер Банк,"просп. Дзержинского, 69, корп. 1, станция метро ""Петровщина"" В1",,53.865345,27.488187,банкомат
Альфа-Банк,"ул. Алибегова, 13, корп. 1",,53.871198,27.474614,банкомат
Белинвестбанк,"ул. Максима Горецкого, 2, Гипермаркет ""ГИППО""",,53.876075,27.466188,банкомат
Альфа-Банк,"Минск, ул. Монтажников, 2",,53.87308,27.417026,банкомат
БелВЭБ,"ул. Скрипникова, 15А, Минск",,53.89125,27.420944,банкомат
Альфа-Банк,"ул. Рафиева, 56, этаж 1",,53.864512,27.448654,банкомат
Беларусбанк,"просп. Газеты Правда, 20А/1",,53.8678,27.484204,банкомат
Беларусбанк,"Уманская ул., 54, корп. 1",,53.874405,27.499511,банкомат
Беларусбанк,"ул. Пономаренко, 32, ЖЭУ № 1 Фрунзенского района г. Минска",,53.894179,27.484439,банкомат
Белгазпромбанк,"ул. Лобанка, 94, этаж 1",,53.886708,27.427976,банкомат
Беларусбанк,"ул. Янки Брыля, 30, отдел 527/453",,53.879685,27.484605,банкомат
Беларусбанк,"просп. Любимова, 30, корп. 2, Слева от входа, отдел №527/444",,53.863146,27.460961,банкомат
Беларусбанк,"просп. Любимова, 41, Лицевая сторона отделения, отдел №527/451",,53.863948,27.453338,банкомат
Приорбанк,"просп. Дзержинского, 104, корп. 2",Банк,53.861291,27.48,банкомат
"Беларусбанк, банкомат","ул. Рафиева, 64, этаж 2",,53.862953,27.441929,банкомат
Белгазпромбанк,"просп. Газеты Звязда, 16",,53.865047,27.46779,банкомат
Беларусбанк,"просп. Дзержинского, 83, корп. 1, этаж 1",,53.861934,27.484681,банкомат
БСБ Банк,"Сухаревская ул., 6",,53.883818,27.438905,банкомат
Банк РРБ,"просп. Дзержинского, 90",,53.866987,27.487324,банкомат
Белинвестбанк,"просп. Дзержинского, 100, этаж 1",,53.863546,27.482964,банкомат
БСБ Банк,"Сухаревская ул., 6",,53.883819,27.438974,банкомат
БелВЭБ,"просп. Дзержинского, 104Б",,53.860427,27.478197,банкомат
"Беларусбанк, банкомат","ул. Сергея Есенина, 76, корп. 1, этаж 1",,53.86229,27.444139,банкомат
Беларусбанк,"ул. Монтажников, 6, Филиал Минская ТЭЦ-4 РУП Минскэнерго На проходной",,53.871944,27.405278,банкомат
БСБ Банк,"ул. Алибегова, 13, корп. 1",,53.870829,27.474151,банкомат
Беларусбанк,"просп. Дзержинского, 69, корп. 1, этаж 1",,53.865258,27.488061,банкомат
Белагропромбанк,"ул. Сергея Есенина, 76, корп. 1, этаж 1",,53.86217,27.444124,банкомат
Белинвестбанк,"просп. Газеты Правда, 40, корп. 2",,53.861798,27.477328,банкомат
Белгазпромбанк,"просп. Газеты Правда, 20",,53.868331,27.48454,банкомат
Банк ВТБ,"Уманская ул., 54, этаж 1",,53.875217,27.498559,банкомат
Альфа-Банк,"Уманская ул., 54, ТЦ Globo",,53.875155,27.498628,банкомат
Белгазпромбанк,"просп. Газеты Звязда, 16",,53.864976,27.467524,банкомат
Беларусбанк,"ул. Янки Брыля, 30",,53.879679,27.484613,банкомат
Технобанк,"ул. Рафиева, 64, этаж 1",,53.862863,27.442053,банкомат
Белагропромбанк,"Минский район, Щомыслицкий сельсовет, 42, Здание жилого дома",,53.874567,27.417301,банкомат
Альфа-Банк,"Харьковская ул., 81, АЗС А100, этаж 1",,53.894566,27.499241,банкомат
Беларусбанк,"просп. Дзержинского, 104Б, этаж 1",,53.860623,27.478685,банкомат
Белгазпромбанк,"ул. Максима Горецкого, 2, Гиппо",,53.876314,27.466605,банкомат
"Технобанк, банкомат","Минск, ул. Монтажников, 2, этаж 1",,53.873207,27.41698,банкомат
Приорбанк,"просп. Дзержинского, 104Б, этаж 1",,53.860659,27.478733,банкомат
Белгазпромбанк,"ул. Скрипникова, 15А",,53.891282,27.420949,банкомат
Белинвестбанк,"просп. Любимова, 26, корп. 1",,53.862181,27.459869,банкомат
Белагропромбанк,"ул. Лобанка, 79, Центр банковских услуг №567/80",,53.88894,27.42897,банкомат
БСБ Банк,"просп. Дзержинского, 80",,53.869221,27.489859,банкомат
Беларусбанк,"просп. Дзержинского, 69, корп. 1",,53.865326,27.487895,банкомат
Белинвестбанк,"просп. Дзержинского, 83, корп. 1, этаж 1",,53.861604,27.484941,банкомат
"Белинвестбанк, банкомат","ул. Гурского, 17, этаж 1",,53.880965,27.48697,банкомат
Белгазпромбанк,"просп. Дзержинского, 104, корп. 2, этаж -1",,53.861386,27.480353,банкомат
ATM Белинвестбанк,"просп. Дзержинского, 55, универсам ""Евроопт""",,53.877379,27.498139,банкомат
БСБ Банк,"Уманская ул., 54, этаж 1",,53.875279,27.498344,банкомат
Белинвестбанк,"Уманская ул., 54, этаж 1",,53.875253,27.498504,банкомат
Приорбанк,"4-й пер. Монтажников, 6, этаж 1",,53.87948,27.41007,банкомат
Белгазпромбанк,"4-й пер. Монтажников, 6, этаж 1",,53.87947,27.409959,банкомат
БСБ Банк,"ул. Максима Горецкого, 2, корп. 2",,53.876531,27.466925,банкомат
Neo Bank,"просп. Пушкина, 12А",,53.898831,27.497838,банкомат
Альфа-Банк,"ул. Максима Горецкого, 2, Гипермаркет Гиппо",,53.876515,27.46608,банкомат
МТБАНК,"Уманская ул., 54, этаж 1",,53.875337,27.498318,банкомат
Белинвестбанк,"просп. Газеты Правда, 20",,53.868427,27.484523,банкомат
Белагропромбанк,"ул. Сергея Есенина, 76, корп. 1, Рынок ""MAXIMUS""",,53.862389,27.444062,банкомат
Технобанк,"Минск, ул. Монтажников, 2",,53.873521,27.416187,банкомат
Альфа-Банк,"просп. Дзержинского, 57, этаж 1",,53.875503,27.497388,банкомат
Беларусбанк,"ул. Пономаренко, 41, Слева от входа, отдел №510/259",,53.893046,27.488955,банкомат
Белагропромбанк,"просп. Жукова, 3, Центральный клиент- ""Белагропромбанк"", офис ОАО",,53.893372,27.499955,банкомат
Приорбанк,"ул. Максима Горецкого, 2, Гипермаркет Гиппо",,53.876515,27.46608,банкомат
БСБ Банк,"ул. Максима Горецкого, 2, корп. 2",,53.876572,27.466757,банкомат
Bsb Bank,"Уманская ул., 54, этаж 1",,53.874981,27.498221,банкомат
Банк Решение,"ул. Пономаренко, 35А, этаж 1",,53.892748,27.4933,банкомат
БелВЭБ,"ул. Скрипникова, 15А",,53.891492,27.420778,банкомат
БелВЭБ,"просп. Любимова, 41, этаж 1",,53.863953,27.453078,банкомат
Белинвестбанк,"ул. Розы Люксембург, 205, корп. 4",,53.890202,27.498787,банкомат
БелВЭБ,"просп. Любимова, 41",,53.863901,27.453081,банкомат
Белинвестбанк,"ул. Глаголева, 37, корп. 1",,53.88595,27.494318,банкомат
Белагропромбанк,"ул. Шаранговича, 4, этаж 1",,53.892971,27.458768,банкомат
Qiwi,"ул. Скрипникова, 15А",,53.891224,27.420858,банкомат
Приорбанк,"просп. Дзержинского, 104, Доп, офис 101/19 Приорбанк ОАО",,53.861915,27.480363,банкомат
Приорбанк,"просп. Дзержинского, 73А, РУП Белоруснефть-Минскавтозаправка",,53.863683,27.487999,банкомат
Приорбанк,"просп. Дзержинского, 104, ОАО ""Приорбанк"", офис 101/19",,53.8619,27.4804,банкомат
Белгазпромбанк,"просп. Дзержинского, 104",,53.861915,27.480363,банкомат
Беларусбанк,"ул. Максима Горецкого, 2",,53.875949,27.466039,банкомат
Приорбанк,"ул. Гурского, 56, БЦ РИФ",,53.87626,27.494987,банкомат
Приорбанк,"просп. Дзержинского, 57, БЦ Omega Tower",,53.875517,27.497431,банкомат
Альфа-Банк,"Харьковская ул., 81, этаж 1",,53.894591,27.499335,банкомат
Альфа Банк,"ул. Максима Горецкого, 2, корп. 1",,53.87588,27.465912,банкомат
Беларусбанк,"ул. Пономаренко, 41, Слева от входа, отдел №510/259",,53.893056,27.488889,банкомат
Беларусбанк,"просп. Газеты Правда, 20А/1, Справа о входа, отдел №527/442",Инфокиоск,53.867709,27.484132,банкомат
Кафе,"ул. Шаранговича, 4, этаж 1",Кафе,53.893175,27.45896,банкомат
"Беларусбанк, инфокиоск","ул. Одинцова, 9, отдел №510/416",Инфокиоск,53.898229,27.456505,банкомат
Беларусбанк,"Сухаревская ул., 8, отдел 510/307",Банк,53.884468,27.43869,отделение банка
Беларусбанк,"ул. Лобанка, 94, Обменный пункт №510/8",Банк,53.886725,27.428054,отделение банка
БСБ Банк,"ул. Шаранговича, 25, этаж 2",Банк,53.883491,27.447645,отделение банка
Белагропромбанк,"ул. Лобанка, 79, этаж 1",Банк,53.888916,27.428773,отделение банка
Беларусбанк,"Сухаревская ул., 62, отдел №510/402",Банк,53.888172,27.422851,отделение банка
Банк Дабрабыт,"ул. Лобанка, 22",Банк,53.901834,27.434424,отделение банка
Белагропромбанк,"ул. Шаранговича, 4, Центр банковских услуг №567/71",Банк,53.893026,27.458891,отделение банка
Беларусбанк,"ул. Одинцова, 113, отдел №510/399",Банк,53.900971,27.42759,отделение банка
Альфа-Банк,"просп. Жукова, 44",,53.876584,27.518312,банкомат
"Белгазпромбанк, банкомат","3-я ул. Щорса, 9, этаж 1",,53.883404,27.511936,банкомат
Приорбанк,"ул. Льва Толстого, 8, этаж 1",,53.888816,27.543498,банкомат
Беларусбанк,"Привокзальная площадь, 5, этаж 2",,53.890969,27.550115,банкомат
"Беларусбанк, банкомат","ул. Чкалова, 5, Минский областной исполнительный комитет",,53.879049,27.535523,банкомат
Беларусбанк,"просп. Дзержинского, 18, ОАО ""АСБ Беларусбанк""",,53.889905,27.521411,банкомат
Альфа-Банк,"Братская ул., 6А, этаж 1",,53.870739,27.55146,банкомат
ATM Белинвестбанк,"Могилёвская ул., 5, этаж 1",,53.884046,27.539805,банкомат
Белинвестбанк,"просп. Жукова, 44, этаж 1",,53.876828,27.518525,банкомат
Белгазпромбанк,"просп. Жукова, 44, этаж 1",,53.876604,27.518284,банкомат
Беларусбанк,"Бобруйская ул., 6, этаж 1",,53.889885,27.55586,банкомат
Сбер Банк,"Привокзальная площадь, 5, Железнодорожный вокзал (нижний уровень)",,53.890831,27.550767,банкомат
Альфа-Банк,"просп. Дзержинского, 1Е, Отель Ренессанс, этаж 1",,53.892119,27.529064,банкомат
Белинвестбанк,"ул. Смирнова, 2, этаж 1",,53.882334,27.513087,банкомат
Беларусбанк,"просп. Дзержинского, 18, Головной, офис №795/операционная служба",Банк,53.890433,27.522606,банкомат
Альфа-Банк,"Бобруйская ул., 13, этаж 1",,53.891975,27.550489,банкомат
Paritetbank,"Бобруйская ул., 15",,53.891603,27.552492,банкомат
Приорбанк,"ул. Фабрициуса, 8Б, корп. 1, этаж 1",,53.889727,27.536748,банкомат
БСБ Банк,"ул. Жуковского, 3, этаж 1",,53.884378,27.552239,банкомат
МТБАНК,"ул. Льва Толстого, 10, этаж 1",,53.888396,27.544421,банкомат
Сбер Банк,"Минск, Бобруйская улица, этаж -1",,53.891742,27.548116,банкомат
Белагропромбанк,"ул. Розы Люксембург, 80, этаж 1",,53.894007,27.528613,банкомат
Беларусбанк,"ул. Розы Люксембург, 183, Инспекция Министерства по налогам и сборам РБ по Московскому району г.Минска",,53.889588,27.50332,банкомат
Беларусбанк,"ул. Игоря Лученка, 1, Справа от входа, отдел №527/463",,53.870305,27.53881,банкомат
Приорбанк,"просп. Мира, 6, этаж 1",,53.869341,27.547117,банкомат
Альфа-Банк,"ул. Льва Толстого, 1, этаж 1",,53.889368,27.544986,банкомат
Белинвестбанк,"ул. Леонида Левина, 8, этаж 1",,53.86638,27.529667,банкомат
"Белинвестбанк, банкомат","ул. Коржа, 11А, этаж 1",,53.895442,27.520076,банкомат
Банк ВТБ,"Бобруйская ул., 6Н, корп. 1",,53.889976,27.555846,банкомат
Сбер Банк,"ул. Воронянского, 48А, этаж -1",,53.877408,27.549491,банкомат
Беларусбанк,"просп. Дзержинского, 18",,53.890481,27.522612,банкомат
Альфа-Банк,"Бобруйская ул., 6Н, корп. 1",,53.889875,27.556178,банкомат
Альфа-Банк,"ул. Кирова, 3, ЗАО Ялина",,53.892867,27.551592,банкомат
"Беларусбанк, банкомат","ул. Розы Люксембург, 110Б",,53.891449,27.516088,банкомат
БСБ Банк,"Привокзальная площадь, 5, этаж 3",,53.890878,27.55007,банкомат
Приорбанк,"ул. Воронянского, 19, этаж 1",,53.87817,27.548421,банкомат
Беларусбанк,"ул. Воронянского, 7А, филиал 527",,53.87827,27.542442,банкомат
Приорбанк,"ул. Казинца, 11А, этаж 1",,53.865433,27.524448,банкомат
Сбер Банк,"ул. Льва Толстого, 1А, метро Вокзальная",,53.889565,27.547629,банкомат
"Белинвестбанк, банкомат","ул. Розы Люксембург, 110, корп. 4",,53.892813,27.514979,банкомат
Белинвестбанк,"Бобруйская ул., 9",,53.892268,27.547142,банкомат
Беларусбанк,"ул. Кирова, 2, отдел 527/355",,53.891803,27.551704,банкомат
МТБАНК,"Могилёвская ул., 12",,53.884452,27.543285,банкомат
Банк ВТБ,"Московская ул., 14, этаж 1",,53.888728,27.538692,банкомат
Альфа-Банк,"Бобруйская ул., 6, ТЦ Галилео",,53.890128,27.554689,банкомат
Беларусбанк,"Привокзальная площадь, 3, этаж 1",,53.890567,27.552527,банкомат
Альфа-Банк,"ул. Мясникова, 70, этаж 1",,53.895215,27.540792,банкомат
БелВЭБ,"просп. Мира, 1, этаж 1",,53.869839,27.549906,банкомат
Альфа-Банк,"ул. Льва Толстого, 1, этаж 1",,53.889295,27.545707,банкомат
Беларусбанк,"ул. Воронянского, 50, корп. 3, магазин ДОРОРС",,53.87727,27.554098,банкомат
МТБАНК,"Железнодорожная ул., 23",,53.874911,27.506413,банкомат
Беларусбанк,"ул. Льва Толстого, 4, отдел 527/87, этаж 1",,53.889462,27.542906,банкомат
Банк ВТБ,"ул. Николы Теслы, 20, этаж 1",,53.868228,27.545922,банкомат
Белгазпромбанк,"Бобруйская ул., 6, этаж 3",,53.890045,27.555922,банкомат
Белинвестбанк,"Минск, площадь Независимости",,53.894743,27.545715,банкомат
Альфа-Банк,"Денисовская ул., 8, этаж 1",,53.871893,27.572914,банкомат
ВТБ,"Московская ул., 14, этаж 1",,53.888762,27.538606,банкомат
Беларусбанк,"ул. Жуковского, 6, корп. 2",,53.882121,27.549821,банкомат
БелВЭБ,"Московская ул., 13, этаж 2",,53.887463,27.538783,банкомат
Сбер Банк,"просп. Жукова, 44, этаж 1",,53.87675,27.518288,банкомат
МТБАНК,"Братская ул., 16",,53.868489,27.550473,банкомат
Сбер Банк,"просп. Дзержинского, 55, станция метро ""Михалово"" В1",,53.877561,27.498266,банкомат
"Белинвестбанк, Банкомат","Октябрьская ул., 10",,53.892268,27.567457,банкомат
Белагропромбанк,"ул. Воронянского, 40, Центр банковских услуг №565",,53.877639,27.545129,банкомат
Белагропромбанк,"ул. Свердлова, 11, этаж 1",,53.892983,27.556545,банкомат
Белинвестбанк,"ул. Кузьмы Минина, 23/1",,53.870431,27.507896,банкомат
Белагропромбанк,"ул. Воронянского, 40",,53.877619,27.545752,банкомат
"Беларусбанк, инфокиоск","Привокзальная площадь, 5, этаж 2",,53.891102,27.549783,банкомат
БелВЭБ,"Октябрьская ул., 15, корп. 10",,53.891868,27.571585,банкомат
"Белинвестбанк, банкомат","Либаво-Роменская ул., 23",,53.871166,27.562731,банкомат
Беларусбанк,"Денисовская ул., 8, этаж 1",,53.872219,27.573805,банкомат
Беларусбанк,"ул. Воронянского, 19, этаж 1",,53.878191,27.548295,банкомат
МТБАНК,"Бобруйская ул., 15",,53.891451,27.553105,банкомат
Белинвестбанк,"Михайловский пер., 2, Суд ЕврАзЭС, только для работников организации",,53.893651,27.552036,банкомат
МТБАНК,"просп. Дзержинского, 3Б, этаж 1",,53.891664,27.527342,банкомат
Сбер Банк,"просп. Независимости, 6, этаж 1",,53.894627,27.548134,банкомат
Paritetbank,"Бобруйская ул., 15",,53.891555,27.552558,банкомат
"БПС-Сбербанк, банкомат","Ленинградская ул., 7",,53.892076,27.548766,банкомат
Сбер Банк,"Минск, улица Щорса",,53.886582,27.514937,банкомат
Альфа-Банк,"просп. Дзержинского, 26",,53.88751,27.515095,банкомат
Белинвестбанк,"просп. Дзержинского, 19",,53.885662,27.516411,банкомат
Paritetbank,"просп. Мира, 3, корп. 1",,53.866112,27.549173,банкомат
Белинвестбанк,"ул. Карла Либкнехта, 85, этаж 1",,53.892809,27.514849,банкомат
Paritetbank,"просп. Мира, 4",,53.870367,27.547261,банкомат
Белгазпромбанк,"ул. Николы Теслы, 20",,53.86805,27.545959,банкомат
Беларусбанк,"Минск, Советская улица, этаж -1",,53.896306,27.549061,банкомат
Белинвестбанк банкомат,"ул. Свердлова, 17, Учебный корпус БГТУ",,53.891008,27.55924,банкомат
Технобанк,"ул. Воронянского, 58",,53.877055,27.559918,банкомат
Белинвестбанк,"ул. Розы Люксембург, 80, этаж 1",,53.893671,27.528926,банкомат
МТБанк,"ул. Кирова, 8, корп. 3, этаж 1",,53.894287,27.555448,банкомат
Альфа-Банк,"ул. Кирова, 3",,53.892743,27.551524,банкомат
МТБАНК,"Бобруйская ул., 6",,53.889984,27.555901,банкомат
Сбер Банк,"Денисовская ул., 8, ТЦ ""Корона-Сити""",,53.872352,27.573588,банкомат
Белгазпромбанк,"ул. Кирова, 17",,53.896495,27.557668,банкомат
Альфа-Банк,"просп. Жукова, 44, ТЦ Outletto",,53.87668,27.517894,банкомат
Банк Решение,"Привокзальная площадь, 5, этаж 3",,53.89089,27.549914,банкомат
Сбер Банк,"ул. Чкалова, 18, корп. 1",,53.878979,27.534278,банкомат
МТБАНК,"Братская ул., 16, Помещение РКЦ 35",,53.868487,27.550444,банкомат
Беларусбанк,"Минск, Суражская улица",,53.885506,27.539352,банкомат
Беларусбанк,"Могилёвская ул., 2, корп. 1",,53.882019,27.537872,банкомат
Технобанк,"ул. Льва Толстого, 1, ТРЦ Minsk City Mall",,53.889194,27.545711,банкомат
Белагропромбанк,"Минск, Советская улица, Центр банковских услуг №510",,53.895429,27.545634,банкомат
Сбербанк,"Минск, Суражская улица, Метро, этаж -1",,53.885521,27.539398,банкомат
Белинвестбанк,"Могилёвская ул., 5",,53.884019,27.539713,банкомат
Беларусбанк,"Минск, Бобруйская улица, этаж -1",,53.89187,27.548223,банкомат
Сбер Банк,"Минск, Суражская улица, Станция метро ""Институт Культуры"" В1, этаж -1",,53.88555,27.539388,банкомат
Сбер Банк,"ул. Маяковского, 6, этаж -1",,53.884712,27.565724,банкомат
Сбер Банк,"просп. Мира, 5, Станция метро «Аэродромная» (В1)",,53.866651,27.549866,банкомат
Банк ВТБ,"ул. Маяковского, 6, этаж -1",,53.884829,27.56557,банкомат
Беларусбанк,"пер. Софьи Ковалевской, 62, корп. 10",,53.866117,27.509092,банкомат
Сбер,"ул. Чкалова, 18, корп. 1",,53.879106,27.534237,банкомат
"Беларусбанк, инфокиоск","ул. Игоря Лученка, 1",Инфокиоск,53.870297,27.538845,банкомат
Беларусбанк,"ул. Левкова, 8А, магазин Виталюр",,53.88175,27.554217,банкомат
Белгазпромбанк,"ул. Маяковского, 6, этаж -1",,53.884539,27.566086,банкомат
Беларусбанк,"Комсомольская ул., 36, этаж 1",,53.897212,27.556293,банкомат
Беларусбанк,"ул. Болеслава Берута, 24/1",,53.899047,27.506086,банкомат
Белгазпромбанк,"просп. Независимости, 6",,53.894616,27.547916,банкомат
Беларусбанк,"Бобруйская ул., 6, этаж 1",,53.889884,27.555856,банкомат
Сбербанк,"ул. Льва Толстого, 1",,53.889595,27.547572,банкомат
Сбер Банк,"Бобруйская ул., 6, этаж 1",,53.890391,27.553597,банкомат
Белагропромбанк,"Братская ул., 6А, этаж 1",,53.870634,27.551707,банкомат
Белорусский народный банк,"Денисовская ул., 8",,53.872266,27.573758,банкомат
БелВЭБ,"ул. Левкова, 9",,53.880374,27.556446,банкомат
Беларусбанк,"просп. Независимости, 11, корп. 1, этаж 1",,53.896669,27.550443,банкомат
Альфа-Банк,"Октябрьская ул., 19А",,53.891779,27.572322,банкомат
"Белинвестбанк, банкомат","ул. Ленина, 16, этаж 1",,53.899453,27.560115,банкомат
"Альфабанк, банкомат","Братская ул., 6А",,53.870692,27.551531,банкомат
БелВЭБ,"ул. Мясникова, 32, этаж 1",,53.898252,27.54349,банкомат
Bsb Bank,"ул. Жуковского, 3",,53.884423,27.552181,банкомат
Беларусбанк,"ул. Максима Горецкого, 2, Беларусь, Минск, Могилёвская улица, 43",,53.876188,27.466383,банкомат
Сбербанк,"Минск, улица Воронянского",,53.877737,27.549551,банкомат
"Белинвестбанк, банкомат","ул. Мясникова, 44, этаж 1",,53.895624,27.540012,банкомат
Банк Решение,"ул. Льва Толстого, 4",,53.890032,27.542664,банкомат
Приорбанк,"ул. Свердлова, 23/3, этаж 1",,53.890121,27.561166,банкомат
Сбер Банк,"просп. Дзержинского, 26",,53.887756,27.515676,банкомат
Приорбанк,"ул. Казинца, 21, корп. 5",,53.861028,27.521622,банкомат
БелВЭБ,"Московская ул., 13",,53.887629,27.538834,банкомат
Paritetbank,"просп. Мира, 4",,53.870153,27.546973,банкомат
Сбер Банк,"ул. Воронянского, 48",,53.877226,27.548617,банкомат
Приорбанк,"просп. Мира, 6, ОАО зона 24 часа ""Приорбанк""",,53.8697,27.5469,банкомат
Белагропромбанк,"ул. Фабрициуса, 12, УГКСЭ Республики Беларусь по г. Минску",,53.88868,27.53622,банкомат
МТБАНК,"Денисовская ул., 8, этаж 1",,53.872241,27.573428,банкомат
"Беларусбанк, банкомат","Минск, Бобруйская улица, этаж -1",,53.891856,27.548174,банкомат
Приорбанк,"Денисовская ул., 8, этаж 1",,53.872307,27.573419,банкомат
МТБАНК,"ул. Льва Толстого, 10, этаж 1",Банк,53.888364,27.544594,отделение банка
Белагропромбанк,"Железнодорожная ул., 44",Банк,53.880447,27.519371,отделение банка
Сбер Банк,"ул. Чкалова, 18, корп. 1, офис №701 на Чкалова",Банк,53.879019,27.534246,отделение банка
Белинвестбанк,"просп. Дзержинского, 19, помещение 1555",Банк,53.885742,27.51639,отделение банка
Беларусбанк,"ул. Чкалова, 1, корп. 1, этаж 1",Банк,53.881227,27.536509,отделение банка
Банк ВТБ,"Московская ул., 14, этаж 2",Банк,53.88875,27.538657,отделение банка
Беларусбанк,"ул. Розы Люксембург, 99, отдел №527/445",Банк,53.891536,27.520994,отделение банка
Приорбанк,"просп. Мира, 6",Банк,53.869672,27.546901,отделение банка
Беларусбанк,"Уманская ул., 54, корп. 1, отдел 527/450, этаж 1",Банк,53.874443,27.499456,отделение банка
Беларусбанк,"ул. Игоря Лученка, 1, Минск, отдел 527/463",Банк,53.870294,27.538763,отделение банка
Белинвестбанк,"Могилёвская ул., 5, этаж 1",Банк,53.884069,27.539836,отделение банка
Белинвестбанк,"Бобруйская ул., 9",Банк,53.892234,27.547476,отделение банка
БСБ Банк,"Могилёвская ул., 12, этаж 1",Банк,53.884645,27.543314,отделение банка
Беларусбанк,"ул. Янки Брыля, 30, отдел 527/453",Банк,53.879642,27.484451,отделение банка
БСБ Банк,"просп. Дзержинского, 80",Банк,53.869196,27.489917,отделение банка
Беларусбанк,"просп. Независимости, 3/2, отдел №527/395",Банк,53.896383,27.549067,отделение банка
БелВЭБ,"просп. Мира, 1",Банк,53.869831,27.549852,отделение банка
Беларусбанк,"Привокзальная площадь, 5, этаж 2",Банк,53.891015,27.549791,отделение банка
Беларусбанк,"просп. Газеты Правда, 20А/1, отдел 527/442",Банк,53.867695,27.484085,отделение банка
Беларусбанк,"ул. Жуковского, 6, корп. 2, помещение 3Н",Банк,53.882147,27.549804,отделение банка
Беларусбанк,"ул. Воронянского, 7А, этаж 2",Банк,53.878265,27.542506,отделение банка
БелВЭБ,"Московская ул., 13, этаж 2",Банк,53.88747,27.538736,отделение банка
Белагропромбанк,"ул. Воронянского, 40",Банк,53.877613,27.545839,отделение банка
Беларусбанк,"просп. Дзержинского, 69, корп. 1, Областное управление №500",Банк,53.865316,27.487891,отделение банка
"Сбер Банк, отделение","ул. Маяковского, 6, этаж 1",Банк,53.884687,27.565701,отделение банка
Сбер Банк,"Бобруйская ул., 6, этаж 1",Банк,53.890328,27.553639,отделение банка
МТБАНК,"Братская ул., 16",Банк,53.868684,27.550233,отделение банка
Paritetbank,"просп. Мира, 4",Банк,53.870352,27.547239,отделение банка
МТБАНК,"Бобруйская ул., 15",Банк,53.891462,27.553163,отделение банка
Белорусский народный банк,"Бобруйская ул., 6",Банк,53.890461,27.553532,отделение банка
Белинвестбанк,"просп. Дзержинского, 100, этаж 2",Банк,53.863759,27.482777,отделение банка
Статусбанк,"ул. Щорса, 11",Банк,53.885605,27.514558,отделение банка
Банк ВТБ,"ул. Николы Теслы, 20",Банк,53.868282,27.546069,отделение банка
Белинвестбанк,"ул. Коржа, 11А, этаж 1",Банк,53.895491,27.520062,отделение банка
Белорусский народный банк,"Братская ул., 18, Авиа Молл, этаж 0",Банк,53.866601,27.548471,отделение банка
Белагропромбанк,"просп. Жукова, 3, Центральный клиент- ""Белагропромбанк"", офис ОАО",Банк,53.893403,27.49999,отделение банка
Статусбанк,"Денисовская ул., 8А",Банк,53.870964,27.571554,отделение банка
Статусбанк,"просп. Дзержинского, 92",Банк,53.86617,27.486477,отделение банка
"Белгазпромбанк, центр банковских услуг № 703","ул. Маяковского, 15",Банк,53.882558,27.568551,отделение банка
Беларусбанк,"ул. Карла Маркса, 8, временно размещается по адресу: г. Минск, ул. Кирова, д. 2, отдел №527/297",Банк,53.896483,27.554695,отделение банка
Белгазпромбанк,"Бобруйская ул., 6, этаж 3",Банк,53.889982,27.555747,отделение банка
Беларусбанк,"ул. Мясникова, 32, этаж 2",Банк,53.897947,27.542039,отделение банка
Беларусбанк,"ул. Пономаренко, 41, отдел №510/259",Банк,53.893044,27.488884,отделение банка
Беларусбанк,"ул. Кирова, 2, отдел 527/355",Банк,53.891785,27.551834,отделение банка
Технобанк,"ул. Володарского, 4",Банк,53.898274,27.549795,отделение банка
Беларусбанк,"просп. Дзержинского, 18",Банк,53.889901,27.521707,отделение банка
Белагропромбанк,"Братская ул., 6А",Банк,53.870564,27.551879,отделение банка
Беларусбанк,"ул. Маяковского, 8, отдел №527/100",Банк,53.883353,27.56738,отделение банка
Альфа-Банк,"просп. Дзержинского, 26",Банк,53.887756,27.515676,отделение банка
Белгазпромбанк,"ул. Николы Теслы, 20",Банк,53.868034,27.545917,отделение банка
Технобанк,"ул. Маяковского, 6, этаж цокольный",Банк,53.884573,27.566381,отделение банка
Беларусбанк,"ул. Льва Толстого, 4, помещение 7Н",Банк,53.889499,27.542945,отделение банка
Белинвестбанк,"ул. Ленина, 16, этаж 2",Банк,53.899446,27.560184,отделение банка
Беларусбанк,"ул. Болеслава Берута, 24/1, отдел №510/177",Банк,53.899201,27.505998,отделение банка
Банк ВТБ,"ул. Маяковского, 6, этаж -1",Банк,53.884522,27.565969,отделение банка
БСБ Банк,"просп. Газеты Правда, 40, корп. 2",Банк,53.861547,27.477315,отделение банка
Беларусбанк,"просп. Независимости, 3, отдел №527/395",Банк,53.89484,27.5462,отделение банка
МТБАНК,"Братская ул., 18, Обслуживание физических лиц",Банк,53.866502,27.548026,отделение банка
Белагропромбанк,"ул. Маяковского, 154",Банк,53.86949,27.569379,отделение банка
Белгазпромбанк,"просп. Дзержинского, 104, корп. 2, этаж -1",Банк,53.861383,27.480423,отделение банка
Белагропромбанк,"ул. Розы Люксембург, 80",Банк,53.894031,27.528642,отделение банка
Белинвестбанк,"ул. Маяковского, 11, этаж 1",Банк,53.883609,27.56868,отделение банка
Центральный аппарат Национального банка Республики Беларусь,"ул. Льва Толстого, 6, этаж 1",Банк,53.889518,27.541509,отделение банка
БелВЭБ,"ул. Мясникова, 32, этаж 1",Банк,53.898379,27.543739,отделение банка
Статусбанк,"Денисовская ул., 8, этаж 1",Банк,53.871348,27.573476,отделение банка
Беларусбанк,"ул. Болеслава Берута, 24/1",Банк,53.899148,27.506053,отделение банка
БСБ Банк,"Денисовская ул., 8",Банк,53.872128,27.573367,отделение банка
МТБАНК,"Могилёвская ул., 12",Банк,53.884432,27.542794,отделение банка
Беларусбанк,"Авроровская ул., 8, отдел №527/419",Банк,53.861315,27.566558,отделение банка
Белгазпромбанк,"просп. Независимости, 6",Банк,53.894592,27.548008,отделение банка
Беларусбанк,"Слесарная ул., 4, отдел 511/310",Банк,53.898063,27.579343,отделение банка
Белагропромбанк,"ул. Карла Маркса, 15",Банк,53.89703,27.55394,отделение банка
Технобанк,"Братская ул., 18, ТЦ Авиа Молл",Банк,53.867288,27.547993,отделение банка
Paritetbank,"Бобруйская ул., 15",Банк,53.891572,27.552483,отделение банка
Беларусбанк,"Аэродромная ул., 125, на территории ООО ""Автоцентр Север""",Банк,53.873268,27.558464,отделение банка
Белагропромбанк,"ул. Маяковского, 6",Банк,53.884684,27.565712,отделение банка
БСБ Банк,"просп. Газеты Звязда, 47",Банк,53.861212,27.465608,отделение банка
Беларусбанк,"просп. Любимова, 30, корп. 2, отдел №527/444",Банк,53.863189,27.460929,отделение банка
Беларусбанк,"ул. Маяковского, 2, Удаленное рабочее, место №527/462",Банк,53.8867,27.564671,отделение банка
"Национальный банк Республики Беларусь, кредитный регистр","ул. Льва Толстого, 6","Министерства, ведомства, государственные службы",53.88949,27.541512,отделение банка
Белгазпромбанк,"просп. Независимости, 6",Банк,53.894647,27.548017,отделение банка
Беларусбанк,"Полевая ул., 12, этаж 1",Банк,53.874344,27.567033,отделение банка
Технобанк,"ул. Воронянского, 19, этаж 1",Обмен валюты,53.878172,27.548208,отделение банка
Беларусбанк,"ул. Мясникова, 40, подъезд 1",Банк,53.897132,27.541739,отделение банка
МТБанк,"Братская ул., 16",Банк,53.868553,27.550579,отделение банка
МТБанк,"ул. Льва Толстого, 10, Помещение РКЦ №68, БЦ Titul",Банк,53.888351,27.544305,отделение банка
Беларусбанк,"ул. Мясникова, 32, отдел 795/413, этаж 3",Банк,53.897953,27.54202,отделение банка
БСБ Банк,"просп. Дзержинского, 104Б, этаж 1",Обмен валюты,53.860813,27.479287,отделение банка
МТБАНК,"Бобруйская ул., 15",Банк,53.891498,27.55318,отделение банка
Россельхозбанк,"ул. Немига, 40, офис 102, этаж цокольный",Банк,53.899546,27.543074,отделение банка
Беларусбанк,"Советская ул., 11, отдел №795/6",Банк,53.896157,27.544663,отделение банка
Центральное хранилище Национального Банка Республики Беларусь,"Могилёвская ул., 35",Банк,53.886337,27.553277,отделение банка
МТБанк,"Братская ул., 16",Банк,53.868557,27.550297,отделение банка
МТБАНК,"ул. Свердлова, 11, этаж 1",Кредитный брокер,53.893107,27.556222,отделение банка
Беларусбанк,"ул. Свердлова, 7",,53.894792,27.552579,отделение банка
Альфа банк,"ул. Карла Либкнехта, 66",Банк,53.897323,27.529007,отделение банка
Беларусбанк,"Советская ул., 11, Национальное Собрание Республики Беларусь в, комната №153",,53.895556,27.544167,отделение банка
Беларусбанк,"Комсомольская ул., 36, этаж 1",,53.897183,27.556405,отделение банка
Беларусбанк,"Партизанский просп., 12, Министерство статистики и анализа Республики Беларусь",,53.880306,27.601412,банкомат
Альфа-Банк,"просп. Рокоссовского, 2, этаж 1",,53.875193,27.595725,банкомат
Сбер Банк,"просп. Рокоссовского, 2, этаж 1",,53.87523,27.595635,банкомат
Белагропромбанк,"Партизанский просп., 52, Центр банковских услуг 705/22",,53.874611,27.627949,банкомат
Беларусбанк,"просп. Рокоссовского, 1, отдел 511/315",,53.874649,27.598057,банкомат
Атм Белинвестбанк,"просп. Рокоссовского, 2, этаж 1",,53.874739,27.595423,банкомат
Альфа-Банк,"ул. Жилуновича, 4, этаж 3",,53.876333,27.630268,банкомат
Беларусбанк,"ул. Жилуновича, 4, этаж 2",,53.876227,27.629824,банкомат
Приорбанк,"Смоленская ул., 27, этаж 1",,53.893085,27.588224,банкомат
БСБ Банк,"просп. Рокоссовского, 2, этаж 2",,53.874966,27.595602,банкомат
Белагропромбанк,"ул. Ванеева, 38, этаж 1",,53.876686,27.594619,банкомат
Беларусбанк,"просп. Рокоссовского, 33, отдел 511/378",,53.869893,27.602944,банкомат
"Белинвестбанк, банкомат","ул. Судмалиса, 3А",,53.890894,27.587315,банкомат
Беларусбанк,"Долгобродская ул., 26, магазин Старт-Х Лицевая сторона правого входа",,53.888992,27.61534,банкомат
Беларусбанк,"Андреевская ул., 11",,53.895708,27.590034,банкомат
Белагропромбанк,"Долгобродская ул., 17/1, этаж 1",,53.896617,27.608149,банкомат
Белинвестбанк,"ул. Будённого, 16А, этаж 1",,53.883195,27.612411,банкомат
Беларусбанк,"ул. Олега Кошевого, 18, отдел 511/291, этаж 1",Банк,53.886515,27.607866,отделение банка
Беларусбанк,"Фабричная ул., 23, отдел №511/45",Банк,53.886447,27.589882,отделение банка
Беларусбанк,"просп. Рокоссовского, 1, отдел №511/315",Банк,53.874675,27.598072,отделение банка
Белагропромбанк,"ул. Ванеева, 38, этаж 1",Банк,53.876577,27.594574,отделение банка
Беларусбанк,"Партизанский просп., 26, корп. 3, этаж 1",Банк,53.877606,27.606985,отделение банка
Банк Дабрабыт,"ул. Искалиева, 2",Банк,53.875409,27.623691,отделение банка
Беларусбанк,"ул. Жилуновича, 12, отдел №511/208",Банк,53.873138,27.628977,отделение банка
Беларусбанк,"ул. Ванеева, 18, отдел 511/176, этаж 1",Банк,53.881994,27.612416,отделение банка
Приорбанк,"просп. Рокоссовского, 80",Банк,53.862918,27.603879,отделение банка
Беларусбанк,"ул. Плеханова, 42, этаж 1",Банк,53.86386,27.6083,отделение банка
Белагропромбанк,"Партизанский просп., 52",Банк,53.874596,27.627997,отделение банка
Альфа-Банк,"просп. Рокоссовского, 80",Банк,53.863703,27.604082,отделение банка
Беларусбанк,"просп. Рокоссовского, 33, отдел 511/378",Банк,53.869909,27.602988,отделение банка
Беларусбанк,"Партизанский просп., 23А, отдел №511/211",Банк,53.883791,27.59418,отделение банка
Приорбанк,"Партизанский просп., 107",Банк,53.86926,27.650366,отделение банка
Статусбанк,"Партизанский просп., 85",Банк,53.874695,27.631948,отделение банка
Белинвестбанк,"Партизанский просп., 85",Банк,53.87478,27.631502,отделение банка
Белгазпромбанк,"Партизанский просп., 79, этаж 1",Банк,53.876347,27.626225,отделение банка
Беларусбанк,"ул. Жилуновича, 26, отдел №511/118",Банк,53.869555,27.626968,отделение банка
МТБАНК,"просп. Рокоссовского, 80",Банк,53.862986,27.603886,отделение банка
ВТБ,"Партизанский просп., 79, этаж 1",Банк,53.876432,27.626191,отделение банка
Беларусбанк,"ул. Солтыса, 54, отдел №511/166",Банк,53.895313,27.653356,отделение банка
Беларусбанк,"Партизанский просп., 110, отдел №511/179",Банк,53.867321,27.653258,отделение банка
"Технобанк, пункт обмена валют","ул. Ленина, 27, этаж 1",Обмен валюты,53.889046,27.580426,отделение банка
Белорусский народный банк,"ул. Маяковского, 6, этаж -1",Банк,53.884981,27.565854,отделение банка
Беларусбанк,"Долгобродская ул., 29, корп. 42, Удаленное рабочее, место №527/473",Банк,53.891328,27.616718,отделение банка
Беларусбанк,"Партизанский просп., 110",Банк,53.867317,27.653214,отделение банка
Neo Bank,"ул. Плеханова, 91, универсам «Санта»",,53.861444,27.603278,отделение банка
Альфа-Банк,"просп. Рокоссовского, 80",Банк,53.862998,27.603746,отделение банка
Сбер Банк,"Уральская ул., 4/6",Банк,53.89822,27.60672,отделение банка
Беларусбанк,"просп. Независимости, 11, корп. 1",Обмен валюты,53.89667,27.550492,отделение банка
Приорбанк,"просп. Рокоссовского, 80, этаж 1",,53.862899,27.603753,отделение банка
Беларусбанк,"Социалистическая ул., 2/1",,53.862404,27.654714,отделение банка
МТБанк,"ул. Льва Толстого, 10",Банк,53.888351,27.544305,отделение банка
Альфа-Банк,"ул. Нестерова, 49, этаж 1",,53.88344,27.681634,банкомат
Сбер Банк,"ул. Нестерова, 49, ТЦ ""Си-Макс"", этаж 1",,53.883307,27.681298,банкомат
Альфа-Банк,"Партизанский просп., 150А, этаж 1",,53.860364,27.674366,банкомат
Беларусбанк,"Охотская ул., 135, корп. 3, отдел 511/290",,53.880159,27.668349,банкомат
Белинвестбанк,"ул. Нестерова, 94, этаж 1",,53.887423,27.691385,банкомат
Беларусбанк,"Ангарская ул., 38, корп. 2",,53.871717,27.684769,банкомат
Беларусбанк,"Партизанский просп., 110, отдел 511/179",,53.867264,27.653501,банкомат
Беларусбанк,"Илимская ул., 27, этаж 1",,53.891522,27.683606,банкомат
Беларусбанк,"ул. Нестерова, 51, Справа от входа в отделение, отдел №511/286",,53.884867,27.684293,банкомат
Белинвестбанк Банкомат № 161,"ул. Солтыса, 189А",,53.89918,27.64903,банкомат
Приорбанк,"Трудовая ул., 10, этаж 1",,53.86591,27.65564,банкомат
Приорбанк,"Партизанский просп., 107, этаж 1",,53.869338,27.650453,банкомат
Беларусбанк,"пер. Бехтерева, 7/12",,53.876295,27.643839,банкомат
Беларусбанк,"Переходная ул., 64, Завод Белкоммунмаш",,53.888095,27.648419,банкомат
Белинвестбанк,"Центральная ул., 11/106",,53.867895,27.649983,банкомат
Белгазпромбанк,"Партизанский просп., 79, этаж 1",,53.876392,27.626138,банкомат
Сбер Банк,"Минск, исторический район Шарики, этаж -1",,53.875885,27.629205,банкомат
Альфа-Банк,"ул. Нестерова, 49, Гипермаркет Евроопт",,53.883601,27.681433,банкомат
Беларусбанк,"ул. Солтыса, 54, этаж 1",,53.895405,27.653343,банкомат
Беларусбанк,"Радиальная ул., 52",,53.89787,27.6417,банкомат
Сбер Банк,"Минск, Ангарская улица",,53.86208,27.674522,банкомат
Белинвестбанк,"Центральная ул., 11/106, этаж 1",,53.867879,27.649911,банкомат
Беларусбанк,"Социалистическая ул., 2/1",,53.862417,27.654854,банкомат
Белинвестбанк,"Партизанский просп., 85, этаж 1",,53.874808,27.631504,банкомат
Белгазпромбанк,"ул. Жилуновича, 4, этаж 2",,53.876248,27.630314,банкомат
Приорбанк,"Радиальная ул., 38А",,53.891616,27.647253,банкомат
Беларусбанк,"Партизанский просп., 147",,53.864658,27.666869,банкомат
Приорбанк,"Радиальная ул., 38А, отделение ""Приорбанк"" ОАО",,53.891591,27.647038,банкомат
Сбер Банк,"Партизанский просп., 109, станция метро ""Автозаводская"" В1",,53.869253,27.651267,банкомат
Белинвестбанк,"ул. Тухачевского, 11",,53.869104,27.62328,банкомат
Белинвестбанк,"ул. Жилуновича, 4, этаж 3",,53.87615,27.63001,банкомат
Белинвестбанк,"Партизанский просп., 48, этаж 1",,53.874924,27.624459,банкомат
Банк РРБ,"ул. Искалиева, 2, этаж 1",,53.87538,27.623714,банкомат
Сбер Банк,"вуліца Жылуновіча, 4",,53.875973,27.629186,банкомат
БелВЭБ,"ул. Ваупшасова, 4, корп. 6, этаж 1",,53.888165,27.632908,банкомат
Беларусбанк,"ул. Солтыса, 189А",,53.899208,27.64901,банкомат
Банк Решение,"Партизанский просп., 40, Банкомат, этаж 1",,53.87584,27.621188,банкомат
БелВЭБ,"Социалистическая ул., 2/1",,53.862419,27.654902,банкомат
Приорбанк,"Трудовая ул., 10, ОАО зона 24 часа ""Приорбанк""",,53.8658,27.6559,банкомат
Беларусбанк,"Минск, Долгобродская ул., 53, этаж -1",,53.877179,27.627891,банкомат
Сбербанк,"Минск, Партизанский проспект, станция метро Автозаводская В2",,53.869418,27.647599,банкомат
Сбер Банк,"Минск, Центральная улица",,53.868821,27.65056,банкомат
Приорбанк,"Минск, Радиальная ул., 38А",,53.8915,27.6471,банкомат
Беларусбанк,"Минск, Охотская ул., 135, корп. 3, этаж 1",,53.880225,27.66829,банкомат
Белагропромбанк,"Минск, Партизанский просп., 52, Центр банковских услуг №564/75",,53.874599,27.627678,банкомат
МТБАНК,"Минск, Партизанский просп., 79, этаж -1",,53.876647,27.625776,банкомат
Белинвестбанк,"Минск, ул. Жилуновича, 4, этаж 2",,53.876037,27.630335,банкомат
Приорбанк,"Минск, Партизанский просп., 79, ТЦ Призма",,53.876573,27.625863,банкомат
Беларусбанк,"Минск, ул. Ваупшасова, 4В",,53.888278,27.632827,банкомат
Беларусбанк,"Минск, Радиальная ул., 50, ОАО Минский завод игристых вин Справа от входа",,53.896667,27.642778,банкомат
БелВЭБ,"Минск, ул. Ваупшасова, 4, корп. 6",,53.888202,27.632879,банкомат
Беларусбанк,"Ангарская ул., 40, отдел №511/424",Банк,53.871934,27.684615,отделение банка
Беларусбанк,"ул. Нестерова, 51, отдел №511/286",Банк,53.884845,27.684268,отделение банка
Приорбанк,"Радиальная ул., 38А",Банк,53.891497,27.647134,отделение банка
Беларусбанк,"Охотская ул., 135, корп. 3, отдел №511/290",Банк,53.880098,27.66829,отделение банка
Беларусбанк,"Партизанский просп., 147, отдел №511/197",Банк,53.864669,27.66689,отделение банка
"Беларусбанк, отделение 511/286","ул. Нестерова, 51",Банк,53.884828,27.684181,отделение банка
Беларусбанк,"Налибокская ул., 1, этаж 1",,53.926836,27.440493,банкомат
Беларусбанк,"ул. Тимирязева, 125, корп. 1, этаж 2",,53.936432,27.447156,банкомат
Альфа-Банк,"ул. Владислава Голубка, 2, этаж 1",,53.926182,27.443939,банкомат
Беларусбанк,"ул. Притыцкого, 156, подъезд 1",,53.908522,27.430377,банкомат
БСБ Банк,"ул. Матусевича, 72, этаж 1",,53.918369,27.450361,банкомат
Беларусбанк,"ул. Матусевича, 76, отдел 510/412",,53.917892,27.446903,банкомат
Приорбанк,"ул. Притыцкого, 156, корп. 1, этаж 1",,53.908441,27.430139,банкомат
Беларусбанк,"ул. Владислава Голубка, 2, этаж 1",,53.926157,27.444247,банкомат
Беларусбанк,"ул. Притыцкого, 93, этаж 1",,53.90618,27.439231,банкомат
Белагропромбанк,"Каменногорская ул., 118, этаж 1",,53.933396,27.431315,банкомат
МТБАНК,"ул. Притыцкого, 79, РКЦ Фаренгейт",,53.905979,27.456622,банкомат
Белгазпромбанк,"ул. Иосифа Жиновича, 1",,53.918167,27.448453,банкомат
Белгазпромбанк,"ул. Владислава Голубка, 2, этаж 1",,53.92618,27.444286,банкомат
Беларусбанк,"Нёманская ул., 47",,53.915816,27.426599,банкомат
Белгазпромбанк,"Казимировская ул., 6, этаж 1",,53.917293,27.428685,банкомат
Беларусбанк,"ул. Матусевича, 35Г, магазин Евроопт",,53.91627,27.457807,банкомат
Беларусбанк,"ул. Иосифа Жиновича, 7, магазин Виталюр",,53.920272,27.447999,банкомат
Альфа-Банк,"агрогородок Ждановичи, Звёздная ул., 19А",,53.93637,27.423778,банкомат
Белагропромбанк,"ул. Притыцкого, 156, подъезд 1",,53.90849,27.430376,банкомат
Белгазпромбанк,"ул. Притыцкого, 156к1-1, этаж 1",,53.908532,27.430327,банкомат
Беларусбанк,"ул. Бурдейного, 6",,53.904861,27.455394,банкомат
Белинвестбанк,"Казимировская ул., 6, этаж 1",,53.917309,27.428725,банкомат
Белагропромбанк,"ул. Притыцкого, 101, этаж 1",,53.905755,27.434035,банкомат
МТБАНК,"ул. Кунцевщина, 2А, этаж 1",,53.907673,27.436875,банкомат
Приорбанк,"ул. Притыцкого, 91, ОАО зона 24 часа ""Приорбанк""",,53.90605,27.442515,банкомат
Белинвестбанк,"ул. Матусевича, 75",,53.91577,27.441308,банкомат
Беларусбанк,"Нарочанская ул., 4, отдел 510/439",,53.934842,27.477991,банкомат
Беларусбанк,"Лидская ул., 14, отдел 510/403, этаж цокольный",,53.922017,27.431097,банкомат
Банк Решение,"ул. Лещинского, 14А, этаж 1",,53.91649,27.451457,банкомат
Альфа-Банк,"Каменногорская ул., 3, этаж 1",,53.911369,27.415198,банкомат
Сбер Банк,"ул. Притыцкого, 156, этаж 1",,53.907984,27.434249,банкомат
Беларусбанк,"ул. Тимирязева, 123, корп. 1, этаж 1",,53.933637,27.455306,банкомат
Белинвестбанк,"Налибокская ул., 36, этаж 1",,53.927866,27.43312,банкомат
Альфа-Банк,"ул. Притыцкого, 156к1-1, этаж 1",,53.908163,27.434032,банкомат
Беларусбанк,"ул. Петра Глебки, 5, этаж 1",,53.908573,27.470554,банкомат
Альфа-Банк,"ул. Притыцкого, 97",,53.905996,27.436804,банкомат
Беларусбанк,"ул. Притыцкого, 78, отдел 510/294",,53.906986,27.446684,банкомат
Беларусбанк,"Каменногорская ул., 3, этаж 1",,53.911015,27.41479,банкомат
Белорусский народный банк,"ул. Притыцкого, 93",,53.906155,27.439285,банкомат
Беларусбанк,"ул. Жудро, 40, этаж 1",,53.917176,27.480429,банкомат
"Белагропромбанк, банкомат","ул. Владислава Голубка, 2, этаж 1",,53.926179,27.444212,банкомат
Альфа-Банк,"ул. Притыцкого, 39, этаж 1",,53.907642,27.476345,банкомат
Беларусбанк,"Минск, улица Притыцкого, этаж -1",,53.906915,27.435796,банкомат
Сбер Банк,"ул. Притыцкого, 72",,53.906883,27.450503,банкомат
Беларусбанк,"ул. Притыцкого, 27, ГУ Ледовый Дворец спорта Минской области Справа от входа",,53.907729,27.485845,банкомат
Белинвестбанк,"ул. Лещинского, 1",,53.906906,27.45254,банкомат
Приорбанк,"ул. Петра Глебки, 5, этаж -1",,53.908657,27.470508,банкомат
Банк ВТБ,"ул. Притыцкого, 91, этаж цокольный",,53.905865,27.441821,банкомат
Беларусбанк,"ул. Дунина-Марцинкевича, 11, этаж -1",,53.906725,27.49238,банкомат
Альфа банк,"Минск, ул. Притыцкого, 146",,53.907429,27.437449,банкомат
Альфа-Банк,"Минск, ул. Притыцкого, 156, подъезд 1",,53.908438,27.430265,банкомат
Neo Bank,"Минск, ул. Тимирязева, 114, ТСЦ Автоград",Банк,53.933635,27.459137,банкомат
Сбер Банк,"Минск, ул. Притыцкого, 148, станция метро ""Каменная горка"" В2",,53.90788,27.436965,банкомат
Сбер Банк,"Минск, улица Притыцкого, этаж -1",,53.908559,27.480541,банкомат
Альфа-Банк,"Минск, ул. Притыцкого, 146",,53.907467,27.437473,банкомат
БСБ Банк,"Минск, Каменногорская ул., 3, корп. 5",,53.91239,27.413118,банкомат
Белинвестбанк,"Минск, ул. Притыцкого, 156, этаж 1",,53.908149,27.434028,банкомат
Белинвестбанк,"Минск, ул. Тимирязева, 125, корп. 2, этаж 1",,53.935982,27.448217,банкомат
Белорусский народный банк,"Минск, Налибокская ул., 36",,53.92785,27.433181,банкомат
Белгазпромбанк,"Минск, ул. Притыцкого, 60, корп. 2, этаж 1",Офис организации,53.908606,27.468399,банкомат
Белагропромбанк,"Минск, ул. Одинцова, 20, Центр банковских услуг №567/81",,53.900511,27.446669,банкомат
БелВЭБ,"Минск, ул. Притыцкого, 93",,53.906163,27.439269,банкомат
Банк Дабрабыт,"Минск, ул. Лобанка, 22, офис 'На Лобанка'",,53.901805,27.434428,банкомат
Белинвестбанк,"Минск, ул. Дунина-Марцинкевича, 2, корп. 1, универсам Славянский",,53.906142,27.481679,банкомат
"Технобанк, банкомат","Минск, ул. Притыцкого, 156, подъезд 1",,53.90896,27.432972,банкомат
Белинвестбанк,"Минск, ул. Притыцкого, 93, этаж 1",Банк,53.905897,27.439237,банкомат
Альфа-Банк,"Минск, ул. Притыцкого, 39, этаж 1",Банк,53.907642,27.476285,банкомат
Беларусбанк,"Минск, Нёманская ул., 35, Слева от входа, отдел №510/421",,53.914336,27.42636,банкомат
Белгазпромбанк,"Минск, ул. Притыцкого, 93, этаж 1",,53.906168,27.439256,банкомат
Белинвестбанк,"Минск, Казимировская ул., 35",,53.916979,27.416753,банкомат
Беларусбанк,"Минск, ул. Одинцова, 36Н, корп. 10",,53.901692,27.436137,банкомат
Белинвестбанк,"Минск, ул. Бурдейного, 6, Западный рынок",,53.904894,27.454671,банкомат
Белагропромбанк,"Минск, ул. Петра Глебки, 5, этаж -1",,53.908832,27.470556,банкомат
Технобанк,"Минск, Налибокская ул., 1, этаж 1",,53.926862,27.440297,банкомат
Neo Bank,"Минск, ул. Брикета, 2, универсам Санта",Банк,53.909105,27.41554,банкомат
Беларусбанк,"Минск, улица Притыцкого",,53.907016,27.436325,банкомат
Беларусбанк,"Минск, ул. Владислава Голубка, 2, этаж 1",,53.926153,27.443845,банкомат
Альфа-Банк,"Минск, ул. Притыцкого, 156к1-1, этаж 1",,53.908548,27.430304,банкомат
Банк РРБ,"Минск, ул. Владислава Голубка, 2",,53.926285,27.44439,банкомат
Сбер Банк,"Минск, ул. Притыцкого, 156",,53.90867,27.43233,банкомат
Приорбанк,"Минск, ул. Притыцкого, 30А",,53.909887,27.494871,банкомат
Белинвестбанк,"Минск, ул. Притыцкого, 101",,53.905545,27.43438,банкомат
Белинвестбанк,"Минск, улица Притыцкого, 29, этаж 1",,53.907427,27.484547,банкомат
Альфа-Банк,"Минск, ул. Матусевича, 20, Банкомат в доме культуры",,53.915766,27.48575,банкомат
БелВЭБ,"Минск, Казимировская ул., 6, floor 1",,53.917301,27.428702,банкомат
Банк ВТБ,"Минск, ул. Тимирязева, 123, корп. 1, этаж 1",,53.933536,27.455885,банкомат
Беларусбанк,"Минск, просп. Пушкина, 75",,53.91862,27.495052,банкомат
Белинвестбанк,"Минск, ул. Притыцкого, 156, подъезд 1",,53.907833,27.43459,банкомат
"Белинвестбанк, банкомат","Минск, ул. Тимирязева, 129, корп. 2, этаж 1",,53.939571,27.441185,банкомат
Белинвестбанк,"Минск, ул. Притыцкого, 93, этаж 1",,53.90591,27.439313,банкомат
БелВЭБ,"Минск, ул. Бурдейного, 11",,53.903911,27.456039,банкомат
Белинвестбанк,"Минск, Налибокская ул., 39, этаж 1",,53.929101,27.425028,банкомат
БСБ Банк,"Минск, ул. Петра Глебки, 5",,53.909271,27.470465,банкомат
Беларусбанк,"Минск, проспект Пушкина",,53.909533,27.4955,банкомат
Беларусбанк,"Минск, ул. Михася Лынькова, 99",,53.926111,27.475278,банкомат
Альфа-Банк,"Минск, ул. Брикета, 31, Банкомат в ТД Комплект",,53.90184,27.408811,банкомат
Беларусбанк,"Минск, ул. Кунцевщина, 13",,53.911098,27.434985,банкомат
Белинвестбанк,"Минск, Мястровская ул., 27",,53.938451,27.465965,банкомат
БелВЭБ,"Минск, ул. Притыцкого, 29",,53.907813,27.484217,банкомат
Paritetbank,"Минск, ул. Лобанка, 1",,53.90613,27.436983,банкомат
Альфа-Банк,"Минск, ул. Петра Глебки, 5, этаж 0",,53.908655,27.470488,банкомат
Альфа-Банк,"Минск, ул. Притыцкого, 156, корп. 1, этаж 2",,53.908335,27.432806,банкомат
"Белгазпромбанк, банкомат","Минск, Домбровская ул., 9",,53.911342,27.454762,банкомат
БелВЭБ,"Минск, Налибокская ул., 36",,53.927872,27.432752,банкомат
Банк Решение,"Минск, Домбровская ул., 9, этаж 1",,53.911252,27.454789,банкомат
Альфа-Банк,"Минск, ул. Дунина-Марцинкевича, 11, этаж -1",,53.906662,27.492591,банкомат
Технобанк,"Минск, ул. Лобанка, 1",,53.905702,27.43651,банкомат
Белорусский народный банк,"Минск, ул. Притыцкого, 29, этаж 1",,53.907909,27.484382,банкомат
БелВЭБ,"Минск, ул. Тимирязева, 127, корп. 4",,53.937807,27.443284,банкомат
Банк РРБ,"Минск, ул. Притыцкого, 93",,53.906112,27.439395,банкомат
БелВЭБ,"Минск, Казимировская ул., 6",,53.917596,27.4295,банкомат
БелВЭБ,"Минск, ул. Притыцкого, 93Рк1",,53.906118,27.440006,банкомат
Белагропромбанк,"Минск, просп. Пушкина, 37",,53.907165,27.49489,банкомат
Сбер Банк,"Минск, ул. Евфросиньи Полоцкой, 1, офис №706 на Полоцкой",,53.907482,27.474178,банкомат
Bsb Bank,"Минск, ул. Притыцкого, 29, этаж 1",,53.907684,27.484345,банкомат
Белгазпромбанк,"Минск, ул. Владислава Голубка, 2",,53.925937,27.444781,банкомат
Банк РРБ,"Минск, Мястровская ул., 27, магазин Виталюр",,53.938415,27.466039,банкомат
Банк БелВЭБ,"Минск, Налибокская ул., 36",,53.927858,27.433148,банкомат
Белгазпромбанк,"Минск, ул. Притыцкого, 60, корп. 2",,53.909091,27.468392,банкомат
Технобанк,"Минск, ул. Петра Глебки, 5, этаж 1",,53.908895,27.470545,банкомат
"Технобанк, банкомат","Минск, ул. Притыцкого, 156, этаж 1",,53.908483,27.432997,банкомат
Белинвестбанк,"Минск, ул. Притыцкого, 56",,53.908495,27.473765,банкомат
Белагропромбанк,"Минск, просп. Победителей, 119, Центр банковских услуг 558, помещение 492",,53.938286,27.473336,банкомат
Сбер Банк,"Минск, улица Притыцкого, этаж -1",,53.906257,27.454594,банкомат
Банк ВТБ,"Минск, ул. Притыцкого, 156, подъезд 1",,53.908431,27.430359,банкомат
Белинвестбанк,"Минск, ул. Жудро, 16",,53.912351,27.480588,банкомат
Белгазпромбанк,"Минск, ул. Иосифа Жиновича, 1",,53.918371,27.448859,банкомат
Белгазпромбанк,"Минск, ул. Дунина-Марцинкевича, 11, этаж -1",,53.906692,27.492435,банкомат
Сбер Банк,"Минск, ул. Притыцкого, 48, станция метро ""Спортивная"" В1",,53.909047,27.478809,банкомат
Белгазпромбанк,"Минск, ул. Петра Глебки, 5, этаж 0",,53.908655,27.470468,банкомат
Белагропромбанк,"Минск, ул. Янки Мавра, 9А",,53.901881,27.490239,банкомат
"Белинвестбанк, банкомат № 203","Минск, ул. Бурдейного, 6В",,53.904781,27.457456,банкомат
МТБАНК,"Минск, ул. Притыцкого, 26, пом. РКЦ 63, этаж 1",,53.910891,27.496807,банкомат
Альфа-Банк,"Минск, просп. Победителей, 84, этаж 1",,53.938,27.485753,банкомат
Банк РРБ,"Минск, ул. Владислава Голубка, 2, ТЦ Бонус, этаж 1",,53.926341,27.444069,банкомат
Альфа-Банк,"Минск, просп. Победителей, 108, этаж 1",,53.939289,27.477913,банкомат
Технобанк,"Минск, ул. Притыцкого, 156, корп. 1, этаж 1",,53.908366,27.430083,банкомат
Беларусбанк,"Минск, улица Кунцевщина, этаж -1",,53.911545,27.436444,банкомат
Белинвестбанк,"Минск, просп. Пушкина, 81",Банк,53.921039,27.498574,банкомат
Альфа-Банк,"Минск, ул. Владислава Голубка, 2, ТЦ Бонус",,53.925937,27.444781,банкомат
Банк РРБ,"Минск, ул. Притыцкого, 89, помещение 5 Н",,53.90584,27.44585,банкомат
Белинвестбанк,"Минск, ул. Притыцкого, 40",,53.909505,27.487189,банкомат
Технобанк,"Минск, ул. Притыцкого, 156, этаж 1",,53.908421,27.430429,банкомат
Беларусбанк,"Минск, просп. Победителей, 105, этаж 1",,53.935448,27.489544,банкомат
Приорбанк,"Минск, ул. Тимирязева, 123, корп. 1, этаж 1",,53.933483,27.455248,банкомат
Белагропромбанк,"Минск, ул. Притыцкого, 60, Центр банковских услуг №562",,53.908708,27.466466,банкомат
Белагропромбанк,"Минск, ул. Ольшевского, 24",,53.920161,27.49932,банкомат
Беларусбанк,"Минск, 6-й Путепроводный пер., 13А, магазин MART INN Слева от входа",,53.925353,27.494458,банкомат
БелВЭБ,"Минск, просп. Победителей, 115",,53.937329,27.476404,банкомат
Белагропромбанк,"Минск, ул. Притыцкого, 101, ТЦ ""Материк""",,53.905567,27.433875,банкомат
Сбер Банк,"Минск, проспект Пушкина, этаж -1",,53.909361,27.495786,банкомат
Белинвестбанк,"Минск, просп. Пушкина, 37",,53.907208,27.494834,банкомат
Сбер Банк,"Минск, просп. Пушкина, 41, cтанция метро ""Пушкинская"" В2",,53.910171,27.494269,банкомат
Приорбанк,"Минск, ул. Тимирязева, 125, корп. 3, этаж 1",,53.935532,27.448212,банкомат
МТБАНК,"Минск, просп. Победителей, 84, этаж 1",,53.93797,27.48577,банкомат
Сбербанк,"Минск, улица Притыцкого",,53.908516,27.480579,банкомат
Приорбанк,"Минск, ул. Тимирязева, 125, корп. 3, этаж 1",,53.935607,27.448136,банкомат
БелВЭБ,"Минск, ул. Тимирязева, 127",,53.937965,27.443837,банкомат
Технобанк,"Минск, просп. Пушкина, 37, магазин Виталюр",,53.907213,27.494883,банкомат
Белагропромбанк,"Минск, микрорайон Каменная Горка-3, Строительный гипермаркет ""ОМА""",,53.933523,27.430763,банкомат
Белгазпромбанк,"Минск, ул. Притыцкого, 93, этаж 1",,53.906227,27.439416,банкомат
Альфа-Банк,"Минск, ул. Притыцкого, 146, Банкомат в ООО Актив 7",,53.907456,27.437544,банкомат
БелВЭБ,"Минск, ул. Одинцова, 20, этаж 1",,53.900522,27.446951,банкомат
Белгазпромбанк,"Минск, ул. Петра Глебки, 5, этаж 0",,53.908308,27.470548,банкомат
"Беларусбанк, банкомат","Минск, просп. Победителей, 111, Велодром СК Минск-арена",,53.93593,27.481629,банкомат
Белинвестбанк,"Минск, ул. Притыцкого, 156, подъезд 1",,53.908138,27.43403,банкомат
Сбер Банк,"Минск, улица Притыцкого, этаж -1",,53.906875,27.436636,банкомат
Альфа-Банк,"Минск, ул. Притыцкого, 156, корп. 1",,53.908448,27.430003,банкомат
Приорбанк,"Минск, ул. Дунина-Марцинкевича, 11, этаж -1",,53.906734,27.492428,банкомат
Приорбанк,"Минск, просп. Победителей, 125, ОАО зона 24/7 ""Приорбанк""",,53.9394,27.4685,банкомат
Белагропромбанк,"Минск, просп. Пушкина, 37, Торговый объект ""Виталюр""",,53.907093,27.494874,банкомат
Приорбанк,"Минск, ул. Тимирязева, 125, корп. 1, ТЦ Мир моды-2",,53.936529,27.446685,банкомат
Приорбанк,"Минск, ул. Притыцкого, 156, УРМ 101/10 Приорбанк ОАО, БЦ Green City",,53.90867,27.43233,банкомат
Альфа-Банк,"Минск, Каменногорская ул., 3",,53.9111,27.415415,банкомат
Приорбанк,"Минск, ул. Притыцкого, 91",,53.906022,27.442554,банкомат
Приорбанк,"Минск, ул. Притыцкого, 91, Доп, офис 101/9 Приорбанк ОАО",,53.905997,27.442598,банкомат
Приорбанк,"Минск, Пионерская ул., 34",,53.939282,27.482792,банкомат
Сбер Банк,"Минск, улица Притыцкого, этаж -1",,53.906639,27.45839,банкомат
СберБанк,"Минск, улица Притыцкого",,53.909655,27.495545,банкомат
Приорбанк,"Минск, ул. Тимирязева, 123, корп. 1, ТРЦ Град, этаж 1",,53.933444,27.455237,банкомат
Альфа-Банк,"Минск, ул. Притыцкого, 97, Банкомат в Отделении Каменная горка",,53.906472,27.437077,банкомат
Альфа-Банк,"Минск, ул. Притыцкого, 97, Банкомат в Отделении Каменная горка",,53.906085,27.436686,банкомат
Альфа-Банк,"Минск, ул. Притыцкого, 97",,53.906144,27.436846,банкомат
Беларусбанк,"Лидская ул., 14, отдел №510/403",Банк,53.921979,27.431124,отделение банка
БСБ Банк,"ул. Матусевича, 72, этаж 1",Банк,53.918344,27.450397,отделение банка
Банк Дабрабыт,"ул. Владислава Голубка, 2, этаж 1",Банк,53.926086,27.444047,отделение банка
Сбер Банк,"ул. Притыцкого, 156, этаж 1",Банк,53.907952,27.4342,отделение банка
Беларусбанк,"ул. Притыцкого, 78, этаж 1",Банк,53.906988,27.44676,отделение банка
Белагропромбанк,"ул. Иосифа Жиновича, 20, этаж 1",Банк,53.923847,27.44338,отделение банка
Беларусбанк,"ул. Матусевича, 76, отдел 510/412",Банк,53.91793,27.447244,отделение банка
Белинвестбанк,"ул. Притыцкого, 156, этаж 1",Банк,53.908101,27.433986,отделение банка
Беларусбанк,"ул. Кунцевщина, 13, отдел 510/417",Банк,53.911144,27.434974,отделение банка
МТБАНК,"ул. Кунцевщина, 2А",Банк,53.907698,27.436815,отделение банка
Альфа-Банк,"ул. Притыцкого, 97",Банк,53.90617,27.436817,отделение банка
Беларусбанк,"Нёманская ул., 35, отдел 510/421",Банк,53.914303,27.426385,отделение банка
ВТБ,"ул. Притыцкого, 91, этаж цокольный",Банк,53.905837,27.441818,отделение банка
Приорбанк,"ул. Притыцкого, 156",Банк,53.90867,27.43233,отделение банка
Белагропромбанк,"Каменногорская ул., 118, ТЦ Ома",Банк,53.933444,27.431531,отделение банка
Приорбанк,"ул. Притыцкого, 91",Банк,53.906064,27.442475,отделение банка
БелВЭБ,"ул. Притыцкого, 93",Банк,53.906083,27.439948,отделение банка
Беларусбанк,"Нарочанская ул., 4, помещение 420",Банк,53.934796,27.47801,отделение банка
Банк РРБ,"ул. Притыцкого, 89, помещение 5Н",Банк,53.905832,27.446489,отделение банка
Обменный пункт БСБ Банка,"Каменногорская ул., 3, магазин ProStore",Банк,53.911548,27.415416,отделение банка
Белгазпромбанк,"ул. Притыцкого, 60, корп. 2, этаж 1",Офис организации,53.908606,27.468399,отделение банка
Сбер Банк,"ул. Евфросиньи Полоцкой, 1",Банк,53.907521,27.474059,отделение банка
БелВЭБ,"просп. Победителей, 115",Банк,53.937364,27.476538,отделение банка
Беларусбанк,"ул. Петра Глебки, 2, этаж 2",Банк,53.908891,27.473481,отделение банка
Paritetbank,"ул. Лобанка, 1",Банк,53.905966,27.43654,отделение банка
Белорусский народный банк,"ул. Притыцкого, 29",Банк,53.907955,27.484229,отделение банка
МТБАНК,"ул. Притыцкого, 26, этаж 1",Банк,53.910861,27.496818,отделение банка
Статусбанк,"Казимировская ул., 6, этаж 1",Обмен валюты,53.917227,27.429006,отделение банка
БСБ Банк,"ул. Петра Глебки, 5",Банк,53.909257,27.470355,отделение банка
Статусбанк,"ул. Притыцкого, 77",Банк,53.905559,27.458055,отделение банка
"МТБАНК, отделения","ул. Бурдейного, 6",Банк,53.905197,27.455002,отделение банка
МТБАНК,"ул. Притыцкого, 79, РКЦ Фаренгейт, этаж 1",Банк,53.905932,27.456772,отделение банка
Белинвестбанк,"ул. Притыцкого, 93, этаж 1",Банк,53.905897,27.439237,отделение банка
Технобанк,"ул. Притыцкого, 156, этаж 1",Банк,53.909013,27.433008,отделение банка
Альфа-Банк,"ул. Притыцкого, 39, этаж 1",Банк,53.907642,27.476285,отделение банка
Технобанк,"Налибокская ул., 1, этаж 1",Обмен валюты,53.926863,27.440261,отделение банка
Беларусбанк,"просп. Пушкина, 75, отдел №510/180",Банк,53.918626,27.495121,отделение банка
Альфа-Банк,"просп. Победителей, 108, этаж 1",Банк,53.939303,27.477905,отделение банка
Беларусбанк,"Каменногорская ул., 11",Банк,53.918499,27.415805,отделение банка
БелВЭБ,"ул. Притыцкого, 23А, этаж 2",Банк,53.908602,27.493956,отделение банка
Беларусбанк,"ул. Одинцова, 36, корп. 1, отдел №510/277",Банк,53.901578,27.436136,отделение банка
Беларусбанк,"ул. Бурдейного, 13, отдел №510/274",Банк,53.903601,27.454888,отделение банка
Беларусбанк,"ул. Петра Глебки, 118, этаж 2",Банк,53.927398,27.481192,отделение банка
Технобанк,"ул. Притыцкого, 156, этаж 1",Банк,53.908566,27.43309,отделение банка
Белагропромбанк,"просп. Победителей, 119",Банк,53.938302,27.473401,отделение банка
Банк ВТБ,"ул. Тимирязева, 114, этаж 3, павильон 3108",Банк,53.934217,27.458251,отделение банка
Белагропромбанк,"ул. Одинцова, 20",Банк,53.90048,27.446616,отделение банка
Приорбанк,"ул. Притыцкого, 30А",Банк,53.909926,27.494842,отделение банка
ВТБ,"Минск, ул. Притыцкого, 156, подъезд 1",Банк,53.908658,27.431044,отделение банка
МТБАНК,"Минск, ул. Притыцкого, 101",Банк,53.90586,27.434006,отделение банка
Белагропромбанк,"Минск, просп. Победителей, 84, этаж 1",Банк,53.937939,27.487805,отделение банка
МТБАНК,"Минск, Каменногорская ул., 11, этаж 2",Банк,53.918568,27.415656,отделение банка
Технобанк,"Минск, Мястровская ул., 27",Обмен валюты,53.938458,27.466057,отделение банка
Беларусбанк,"Минск, ул. Жудро, 59Б, отдел №510/202",Банк,53.920888,27.480159,отделение банка
Беларусбанк,"Минск, ул. Петра Глебки, 2, этаж 2",Банк,53.908814,27.473789,отделение банка
БСБ Банк,"Минск, ул. Петра Глебки, 5, этаж -1",Банк,53.908924,27.470535,отделение банка
МТБАНК,"Минск, ул. Притыцкого, 101",Банк,53.905854,27.43388,отделение банка
Банк РРБ,"Минск, ул. Притыцкого, 89, помещение 5 Н",Банк,53.905815,27.44651,отделение банка
Белагропромбанк,"Минск, ул. Ольшевского, 24, этаж 2",Банк,53.920099,27.499314,отделение банка
МТБАНК,"Минск, ул. Притыцкого, 79, этаж 1",Банк,53.905957,27.45673,отделение банка
Neo Bank,"Минск, ул. Тимирязева, 125, корп. 1, этаж 1",Банк,53.936428,27.447214,отделение банка
МТБАНК,"Минск, ул. Притыцкого, 79",Банк,53.905949,27.456619,отделение банка
Беларусбанк,"Минск, ул. Тимирязева, 114, Отдел по гражданству и миграции Минского РУВД, этаж 3",Банк,53.934329,27.45804,отделение банка
"Технобанк, обменный пункт № 81","Минск, ул. Притыцкого, 29, этаж -1",Обмен валюты,53.907531,27.484312,отделение банка
МТБАНК,"Минск, ул. Притыцкого, 79",Банк,53.905956,27.456616,отделение банка
"МТБАНК, отделения","Минск, Камайская ул., 3, Удаленное рабочее, место №259",Банк,53.932824,27.463996,отделение банка
МТБанк,"Минск, ул. Притыцкого, 79",Банк,53.905907,27.456863,отделение банка
Neo Bank,"Минск, ул. Дунина-Марцинкевича, 11, этаж -1",,53.906842,27.492544,отделение банка
Белагропромбанк,"Минск, ул. Одинцова, 20",,53.900477,27.446667,отделение банка
Беларусбанк,"Минск, ул. Одинцова, 36, корп. 1",,53.901595,27.436206,отделение банка
Банк ВТБ,"Минск, ул. Притыцкого, 91, этаж цокольный",,53.905808,27.441889,отделение банка
Белагропромбанк,"Минск, просп. Победителей, 119",,53.938253,27.473413,отделение банка
БПС-Сбербанк,"Минск, ул. Евфросиньи Полоцкой, 1, этаж 1",,53.907517,27.474008,отделение банка
Creditbel,"Минск, Домбровская ул., 9, офис 9.1",Кредитный брокер,53.911333,27.454563,отделение банка
Беларусбанк,"просп. Победителей, 65, этаж 2",,53.925832,27.517422,банкомат
"Приорбанк, банкомат","просп. Победителей, 65, этаж 2",,53.926072,27.518077,банкомат
Банк Решение,"ул. Игнатенко, 11, Головной «Банк «Решение», банкомат, офис ЗАО",,53.918454,27.524559,банкомат
Альфа-Банк,"ул. Тимирязева, 74А",,53.926769,27.510119,банкомат
Бпс-сбербанк,"просп. Победителей, 65, возле эскалаторов, ТЦ ""Замок"", этаж 1",,53.925896,27.517476,банкомат
Беларусбанк,"ул. Червякова, 57, Супермаркет Гиппо",,53.930102,27.547739,банкомат
"Белинвестбанк, банкомат","просп. Победителей, 7, СП ЗАО ""Ромашка""",,53.908131,27.54997,банкомат
Беларусбанк,"ул. Ольшевского, 20/3",,53.917103,27.502405,банкомат
Беларусбанк,"просп. Победителей, 49, этаж 1",,53.917078,27.533132,банкомат
Альфа-Банк,"Кальварийская ул., 24, этаж 1",,53.908054,27.528034,банкомат
Беларусбанк,"просп. Победителей, 59, этаж 1",,53.921565,27.526886,банкомат
Приорбанк,"ул. Притыцкого, 30А",,53.909887,27.494871,банкомат
Альфа-Банк,"просп. Победителей, 65, этаж 1",,53.926227,27.517958,банкомат
Беларусбанк,"просп. Победителей, 61, корп. 1",,53.923871,27.522363,банкомат
Беларусбанк,"ул. Гусовского, 22, этаж 1",,53.905606,27.513467,банкомат
Белинвестбанк,"ул. Притыцкого, 2, корп. 3, универсам Рублевский",,53.910484,27.50495,банкомат
БСБ Банк,"ул. Тимирязева, 67, этаж 1",,53.925248,27.508436,банкомат
Белорусский народный банк,"просп. Победителей, 65, этаж 4",,53.92581,27.517403,банкомат
Беларусбанк,"Кальварийская ул., 24, этаж 1",,53.90779,27.528,банкомат
Беларусбанк,"просп. Победителей, 9, этаж 2",,53.908481,27.547653,банкомат
"Беларусбанк, банкомат","Старовиленский тракт, 41, УО Минский государственный дворец детей и молодежи Справа от входа",,53.925142,27.544242,банкомат
МТБАНК,"просп. Победителей, 20, этаж 1",,53.932854,27.511037,банкомат
Беларусбанк,"просп. Победителей, 75, корп. 1, Слева от входа, отдел №510/284",,53.931854,27.506484,банкомат
Белорусский народный банк,"просп. Победителей, 9, этаж 1",Банк,53.908664,27.5487,банкомат
Приорбанк,"ул. Кропоткина, 91А",,53.922198,27.558541,банкомат
Сбер Банк,"Старовиленский тракт, 93, корп. 1",,53.933831,27.540062,банкомат
Альфа-Банк,"ул. Немига, 5, этаж 1",,53.903346,27.55106,банкомат
Белорусский народный банк,"Татарская ул., 2",,53.915342,27.522997,банкомат
Беларусбанк,"ул. Ленина, 10",,53.900649,27.558339,банкомат
МТБАНК,"просп. Победителей, 9",,53.908686,27.548758,банкомат
Альфа-Банк,"просп. Победителей, 9, этаж 2",,53.908759,27.549115,банкомат
Белгазпромбанк,"ул. Тимирязева, 70, этаж 2",,53.923468,27.512643,банкомат
Белинвестбанк,"просп. Пушкина, 81",Банк,53.921039,27.498574,банкомат
Белагропромбанк,"просп. Пушкина, 37",,53.907165,27.49489,банкомат
Беларусбанк,"ул. Мельникайте, 6, Администрация Центрального района г.Минска",,53.907791,27.543315,банкомат
Беларусбанк,"Орловская ул., 31, магазин Щедрый",,53.932015,27.55334,банкомат
Белинвестбанк,"просп. Победителей, 65, этаж 1",,53.926382,27.518182,банкомат
Банк Дабрабыт,"Коммунистическая ул., 49",,53.914248,27.552641,банкомат
Альфа-Банк,"ул. Дунина-Марцинкевича, 11, этаж -1",,53.906662,27.492591,банкомат
Альфа-Банк,"просп. Победителей, 3",Банк,53.907123,27.551047,банкомат
Банкомат,"просп. Победителей, 61",,53.923309,27.524045,банкомат
Альфа-Банк,"просп. Победителей, 89, корп. 1",,53.93296,27.502925,банкомат
Беларусбанк,"Орловская ул., 66, корп. 9, этаж 1",,53.931281,27.532281,банкомат
Приорбанк,"ул. Тимирязева, 65А, этаж 1",,53.922915,27.511129,банкомат
Альфа-Банк,"ул. Матусевича, 20, Банкомат в доме культуры",,53.915766,27.48575,банкомат
Сбер Банк,"Кальварийская ул., 25",,53.906559,27.521132,банкомат
Беларусбанк,"6-й Путепроводный пер., 13А, магазин MART INN Слева от входа",,53.925353,27.494458,банкомат
Белинвестбанк,"ул. Скрыганова, 14",,53.909653,27.522447,банкомат
Беларусбанк,"бул. Шевченко, 9",,53.926655,27.555656,банкомат
Белгазпромбанк,"ул. Тимирязева, 74А, этаж -1",,53.92678,27.510101,банкомат
Беларусбанк,"ул. Веры Хоружей, 24, корп. 1, отделение Беларусбанка",,53.922435,27.565299,банкомат
Беларусбанк,"просп. Пушкина, 75",,53.91862,27.495052,банкомат
Приорбанк,"просп. Победителей, 9, этаж 2",,53.908427,27.547707,банкомат
Беларусбанк,"просп. Машерова, 54, этаж 1",,53.917909,27.557828,банкомат
Сбер Банк,"Минск, улица Максима Богдановича, этаж -1",,53.905597,27.554087,банкомат
Белагропромбанк,"просп. Победителей, 65, этаж 1",,53.926233,27.518264,банкомат
Белинвестбанк Банкомат № 74,"Кальварийская ул., 24, этаж 1",,53.907554,27.527628,банкомат
БСБ Банк,"просп. Победителей, 65, floor 1",,53.925739,27.517299,банкомат
Альфа-Банк,"просп. Независимости, 23, корп. 1",,53.901495,27.559659,банкомат
Белгазпромбанк,"ул. Дунина-Марцинкевича, 11, этаж -1",,53.906692,27.492435,банкомат
Белорусский народный банк,"Кальварийская ул., 24, этаж 1",,53.907526,27.527868,банкомат
МТБанк,"просп. Победителей, 3",,53.906432,27.551024,банкомат
Сбер Банк,"Кальварийская ул., 4А, ДО 703 на Кальварийской Региональной дирекции 700 по г. Минску и Минской области",,53.905623,27.539326,банкомат
Беларусбанк,"ул. Максима Танка, 36, корп. 1",,53.90905,27.530817,банкомат
БСБ Банк,"Кальварийская ул., 24, этаж 1",,53.907549,27.527903,банкомат
Paritetbank,"просп. Победителей, 19, Белинтурист",,53.911453,27.546167,банкомат
МТБАНК,"ул. Немига, 5",,53.902342,27.549862,банкомат
Технобанк,"просп. Победителей, 9, этаж -1",,53.908678,27.548686,банкомат
Сбер Банк,"Орловская ул., 88",,53.928199,27.506175,банкомат
МТБАНК,"просп. Победителей, 65",,53.926219,27.518247,банкомат
Сбербанк,"просп. Победителей, 9, этаж 2",,53.908754,27.549121,банкомат
МТБАНК,"ул. Притыцкого, 26, пом. РКЦ 63, этаж 1",,53.910891,27.496807,банкомат
Банк Решение,"Сторожовская ул., 8",Банк,53.914486,27.553628,банкомат
БелВЭБ,"ул. Скрыганова, 6/3, этаж 1",,53.911848,27.516942,банкомат
Технобанк,"Кальварийская ул., 24, этаж 1",,53.907656,27.52784,банкомат
Альфа-Банк,"просп. Победителей, 65, корп. 1, этаж 1",,53.925698,27.517179,банкомат
Белинвестбанк,"ул. Дунина-Марцинкевича, 2, корп. 1, универсам Славянский",,53.906142,27.481679,банкомат
Альфа-Банк,"Красная ул., 7А",Банк,53.912635,27.571259,банкомат
Белагропромбанк,"просп. Победителей, 17, ТК 18",,53.910317,27.547639,банкомат
Сбербанк,"просп. Победителей, 9, этаж 2",,53.9084,27.547738,банкомат
Беларусбанк,"ул. Веры Хоружей, 8, корп. 1",,53.919066,27.577882,банкомат
"Белинвестбанк, банкомат","Кальварийская ул., 39",,53.908209,27.50937,банкомат
Сбер Банк,"1-й Загородный пер., 3А, этаж -1",,53.906614,27.521113,банкомат
Белорусский народный банк,"ул. Притыцкого, 29, этаж 1",,53.907909,27.484382,банкомат
Белинвестбанк,"Сторожовская ул., 15, этаж 1",,53.915199,27.550486,банкомат
Беларусбанк,"ул. Романовская Слобода, 9, этаж 1",,53.903662,27.543778,банкомат
Банк РРБ,"ул. Тимирязева, 74А, этаж -1",,53.927035,27.509855,банкомат
Белгазпромбанк,"просп. Победителей, 21, этаж 1",,53.911294,27.545176,банкомат
Белагропромбанк,"просп. Победителей, 91, Центр банковских услуг №510",,53.933129,27.502286,банкомат
Беларусбанк,"ул. Ольшевского, 8, этаж 1",,53.91228,27.507241,банкомат
БСБ Банк,"просп. Победителей, 7А, этаж 1",,53.907696,27.549871,банкомат
Белагропромбанк,"Кальварийская ул., 27",,53.906955,27.519159,банкомат
БелВЭБ,"ул. Притыцкого, 29",,53.907813,27.484217,банкомат
Белинвестбанк,"просп. Пушкина, 37",,53.907208,27.494834,банкомат
Альфа-Банк,"ул. Веры Хоружей, 8, этаж 1",,53.919676,27.576665,банкомат
Альфа-банк,"просп. Победителей, 5",,53.90715,27.55103,банкомат
Банк БелВЭБ,"просп. Победителей, 65",,53.926257,27.518002,банкомат
Технобанк,"просп. Пушкина, 37, магазин Виталюр",,53.907213,27.494883,банкомат
Приорбанк,"ул. Ленина, 10",,53.900451,27.558064,банкомат
Беларусбанк,"просп. Независимости, 44",,53.911566,27.57921,банкомат
Беларусбанк,"Сухая ул., 8",,53.903622,27.536625,банкомат
Paritetbank,"ул. Киселёва, 61А, этаж 1",,53.915179,27.560538,банкомат
"Белинвестбанк, банкомат","Каховская ул., 47",,53.929029,27.563953,банкомат
Белинвестбанк,"площадь Свободы, 17, ЦБУ №517 г. Минск ОАО ""Белинвестбанк""",,53.904288,27.553814,банкомат
"Белагропромбанк, банкомат","ул. Короля, 73, подъезд 1",,53.904353,27.52915,банкомат
Беларусбанк,"просп. Победителей, 105, этаж 1",,53.935448,27.489544,банкомат
Белинвестбанк,"Кальварийская ул., 2",,53.905648,27.540212,банкомат
Беларусбанк,"Заславская ул., 23, корп. 1, этаж 1",,53.910194,27.536812,банкомат
Сбербанк,"просп. Победителей, 9, этаж -1",,53.90812,27.548183,банкомат
Беларусбанк,"ул. Ленина, 3",,53.901794,27.55793,банкомат
Белагропромбанк,"ул. Янки Мавра, 9А",,53.901881,27.490239,банкомат
Приорбанк,"ул. Дунина-Марцинкевича, 11, этаж -1",,53.906734,27.492428,банкомат
Белинвестбанк,"просп. Победителей, 31, этаж 1",,53.912536,27.538741,банкомат
"Белинвестбанк, банкомат","бул. Шевченко, 20",,53.927539,27.556403,банкомат
ВТБ,"просп. Победителей, 9, этаж 2",,53.908454,27.547681,банкомат
Paritetbank,"просп. Победителей, 20, Marriott Hotel",,53.932712,27.510501,банкомат
Белагропромбанк,"ул. Ольшевского, 24",,53.920161,27.49932,банкомат
Белагропромбанк,"ул. Тимирязева, 74А, этаж -1",,53.926757,27.510142,банкомат
БСБ Банк,"ул. Янки Купалы, 25, этаж 1",,53.905406,27.560971,банкомат
Белагропромбанк,"ул. Сапёров, 7, Здание Управления Следственного комитета РБ по г.Минску",,53.922904,27.517382,банкомат
Альфа-Банк,"просп. Победителей, 65, этаж 1",,53.926468,27.518553,банкомат
Приорбанк,"просп. Победителей, 89, корп. 1",,53.933001,27.50314,банкомат
Альфа-Банк,"просп. Победителей, 84, этаж 1",,53.938,27.485753,банкомат
Альфа-Банк,"ул. Козлова, 2, этаж 1",,53.909964,27.578429,банкомат
Альфа-Банк,"просп. Победителей, 3, этаж 1",,53.907128,27.551044,банкомат
Белинвестбанк,"Кальварийская ул., 7",,53.905353,27.534894,банкомат
Сбер Банк,"Минск, улица Мельникайте",,53.905295,27.540799,банкомат
БПС-Сбербанк,"просп. Победителей, 65, этаж 1",,53.925811,27.517642,банкомат
Белинвестбанк,"просп. Машерова, 29",,53.916916,27.556234,банкомат
Технобанк,"ул. Немига, 3, этаж 1",,53.903722,27.551542,банкомат
Белорусский народный банк,"просп. Победителей, 9, этаж -1",,53.90857,27.548608,банкомат
Белинвестбанк,"просп. Победителей, 31, этаж 1",,53.912223,27.538382,банкомат
Сбер Банк,"Минск, площадь Победы",,53.908995,27.574353,банкомат
Сбер Банк,"Минск, проспект Независимости",,53.901363,27.56071,банкомат
Сбер Банк,"Кальварийская ул., 1, станция метро ""Фрунзенская"" В1",,53.905053,27.539265,банкомат
Беларусбанк,"ул. Киселёва, 17",,53.912141,27.569215,банкомат
Сбер Банк,"просп. Победителей, 9, зона банкоматов), ТЦ «Галерея», этаж 2",,53.908007,27.548151,банкомат
Альфа-банк,"ул. Веры Хоружей, 25, этаж 1",,53.921836,27.563581,банкомат
"Приорбанк, банкомат","ул. Клары Цеткин, 51А, этаж 1",,53.904312,27.532885,банкомат
Альфа-Банк,"ул. Тимирязева, 74А, этаж -1",Обмен валюты,53.926756,27.510141,банкомат
Беларусбанк,"ул. Лили Карастояновой, 15",,53.933901,27.565345,банкомат
Беларусбанк,"Кальварийская ул., 17, Административное здание В фойе",,53.905995,27.529142,банкомат
Сбер Банк,"просп. Пушкина, 41, cтанция метро ""Пушкинская"" В2",,53.910171,27.494269,банкомат
Белагропромбанк,"Сухая ул., 2",,53.90495,27.53992,банкомат
Bsb Bank,"ул. Притыцкого, 29, этаж 1",,53.907684,27.484345,банкомат
Белинвестбанк,"ул. Притыцкого, 40",,53.909505,27.487189,банкомат
Приорбанк,"Интернациональная ул., 36, этаж 1",,53.904489,27.561362,банкомат
Белагропромбанк,"просп. Пушкина, 37, Торговый объект ""Виталюр""",,53.907093,27.494874,банкомат
Альфа-Банк,"ул. Веры Хоружей, 6",,53.918201,27.578303,банкомат
Альфа-Банк,"Красная ул., 7А",,53.912895,27.571602,банкомат
БелВЭБ,"ул. Притыцкого, 23А, этаж 2",,53.908622,27.493991,банкомат
Белагропромбанк,"ул. Романовская Слобода, 8, этаж 1",,53.902637,27.547325,банкомат
Технобанк,"просп. Победителей, 65, этаж 1",,53.926349,27.518396,банкомат
БСБ Банк,"площадь Свободы, 23, РКЦ №1",,53.903895,27.557204,банкомат
МТБанк,"просп. Победителей, 20, отель Мариотт",,53.932712,27.510501,банкомат
"Беларусбанк, банкомат","Харьковская ул., 1, этаж 2",,53.903032,27.524422,банкомат
Neo Bank,"ул. Веры Хоружей, 20-2",,53.921934,27.567167,банкомат
Белагропромбанк,"бул. Шевченко, 11, Центр банковских услуг №706/26",,53.927181,27.555681,банкомат
Белагропромбанк,"просп. Независимости, 41А",,53.912477,27.576759,банкомат
БСБ Банк,"Минск, Заславская улица",,53.910825,27.540827,банкомат
Банк РРБ,"просп. Победителей, 3",,53.906698,27.55088,банкомат
МТБАНК,"просп. Победителей, 65",,53.926463,27.518536,банкомат
Paritetbank,"ул. Мельникайте, 2",,53.906001,27.542323,банкомат
Беларусбанк,"ул. Немига, 8, этаж 2",,53.903665,27.550116,банкомат
Альфа-Банк,"ул. Петра Глебки, 5, этаж 0",,53.908655,27.470488,банкомат
Paritetbank,"Кальварийская ул., 24",,53.907574,27.527498,банкомат
Сбер Банк,"просп. Победителей, 3, этаж 1",,53.906988,27.550563,банкомат
Беларусбанк,"ул. Михася Лынькова, 99",,53.926111,27.475278,банкомат
Сбербанк,"просп. Победителей, 9, этаж -1",,53.908126,27.547986,банкомат
Приорбанк,"ул. Тимирязева, 65А, ЦБУ 101 Приорбанк ОАО",,53.923275,27.5106,банкомат
БСБ Банк,"просп. Победителей, 23, корп. 4",Банк,53.910931,27.540621,отделение банка
Банк Решение,"ул. Игнатенко, 11",Банк,53.918508,27.524333,отделение банка
Технобанк,"просп. Победителей, 65, этаж 1",Банк,53.925753,27.517928,отделение банка
Беларусбанк,"ул. Ольшевского, 1, корп. 3, отдел 510/174",Банк,53.913126,27.50423,отделение банка
Приорбанк,"ул. Тимирязева, 65А, этаж 1",Банк,53.923211,27.510917,отделение банка
БСБ Банк,"ул. Тимирязева, 67, офис 208, этаж 2",Банк,53.925224,27.5083,отделение банка
Белинвестбанк,"просп. Машерова, 29",Банк,53.916886,27.55606,отделение банка
Беларусбанк,"ул. Максима Танка, 34, корп. 2, отдел 510/316",Банк,53.908771,27.531441,отделение банка
Банк Торговый капитал,"ул. Тимирязева, 65А, этаж 2",Банк,53.923025,27.511157,отделение банка
СберБанк,"Кальварийская ул., 4А",Банк,53.905598,27.539305,отделение банка
Приорбанк,"ул. Немига, 30, корп. 1",Банк,53.901644,27.547659,отделение банка
БСБ Банк,"просп. Победителей, 65, floor 1",Банк,53.926423,27.518389,отделение банка
Беларусбанк,"ул. Веры Хоружей, 46, корп. 1, отдел №510/163",Банк,53.92342,27.552867,отделение банка
Банк Дабрабыт,"Коммунистическая ул., 49, помещение 1",Банк,53.914269,27.552288,отделение банка
Беларусбанк,"просп. Победителей, 75к1, отдел 510/284",Банк,53.93182,27.506315,отделение банка
МТБАНК,"ул. Тимирязева, 67, офис 120",Банк,53.925299,27.508361,отделение банка
Технобанк,"просп. Победителей, 9, этаж 2",Банк,53.908469,27.54756,отделение банка
Paritetbank,"ул. Киселёва, 61А, этаж 1",Банк,53.915151,27.560537,отделение банка
Белгазпромбанк,"ул. Тимирязева, 70, этаж 2",Обмен валюты,53.923525,27.512596,отделение банка
Беларусбанк,"бул. Шевченко, 12, этаж 1",Банк,53.925743,27.556325,отделение банка
Белорусский народный банк,"просп. Победителей, 65, этаж 1",Банк,53.926007,27.518185,отделение банка
БСБ Банк,"ул. Янки Купалы, 25",Банк,53.905565,27.561021,отделение банка
Беларусбанк,"ул. Ленина, 5",Банк,53.901515,27.558426,отделение банка
МТБАНК,"просп. Победителей, 3",Банк,53.906432,27.551024,отделение банка
Neo Bank,"ул. Веры Хоружей, 20",Банк,53.921785,27.567362,отделение банка
Белорусский народный банк,"просп. Победителей, 9",Банк,53.908665,27.548756,отделение банка
СберПервый,"просп. Независимости, 32А, стр. 1, СберПервый -только для премиальных клиентов",Банк,53.904621,27.569563,отделение банка
БелВЭБ,"Заславская ул., 10",Банк,53.910667,27.539818,отделение банка
Приорбанк,"ул. Веры Хоружей, 31А, этаж 1, 2",Банк,53.922733,27.557673,отделение банка
Беларусбанк,"просп. Независимости, 44, отдел 514/300",Банк,53.911592,27.579248,отделение банка
Банк РРБ,"ул. Тимирязева, 74А, этаж -1",Банк,53.927159,27.509538,отделение банка
Беларусбанк,"ул. Романовская Слобода, 9, отдел 527/449",Банк,53.903618,27.543946,отделение банка
Белагропромбанк,"ул. Романовская Слобода, 8",Банк,53.902626,27.547419,отделение банка
Белагропромбанк,"просп. Победителей, 49",Банк,53.917221,27.533184,отделение банка
Банк Дабрабыт,"ул. Веры Хоружей, 6Б, ТЦ Зеркало",Банк,53.918876,27.580058,отделение банка
Белинвестбанк,"ул. Максима Богдановича, 153, этаж 1",Банк,53.935225,27.579994,отделение банка
Банк развития Республики Беларусь,"просп. Машерова, 35",Банк,53.917006,27.549778,отделение банка
Приорбанк,"ул. Кропоткина, 91А",Банк,53.922246,27.558548,отделение банка
